[ 
    { 
        "id": 1, 
        "name": "中国石油中和加油站", 
        "lon": 104.091008, 
        "lat": 30.561087, 
        "type": "加油站" 
    }, 
    { 
        "id": 2, 
        "name": "延长壳牌盛锦三街加油站", 
        "lon": 104.0354, 
        "lat": 30.563117, 
        "type": "加油站" 
    }, 
    { 
        "id": 3, 
        "name": "成都通能盛锦CNG加气站", 
        "lon": 104.035513, 
        "lat": 30.56348, 
        "type": "加气站" 
    }, 
    { 
        "id": 4, 
        "name": "中国石油麻柳湾加油站", 
        "lon": 104.087907, 
        "lat": 30.596824, 
        "type": "加油站" 
    }, 
    { 
        "id": 5, 
        "name": "中国石油元华加油站", 
        "lon": 104.050117, 
        "lat": 30.601513, 
        "type": "加油站" 
    }, 
    { 
        "id": 6, 
        "name": "延长壳牌加油站(成都高新益新大道站)", 
        "lon": 104.033537, 
        "lat": 30.587778, 
        "type": "加油站" 
    }, 
    { 
        "id": 7, 
        "name": "延长壳牌拓新西二街加油站", 
        "lon": 104.053281, 
        "lat": 30.542733, 
        "type": "加油站" 
    }, 
    { 
        "id": 8, 
        "name": "中国石油油料中和加油站(红星路南延线)", 
        "lon": 104.088515, 
        "lat": 30.547206, 
        "type": "加油站" 
    }, 
    { 
        "id": 9, 
        "name": "中国石化加油站", 
        "lon": 104.026775, 
        "lat": 30.567829, 
        "type": "加油站" 
    }, 
    { 
        "id": 10, 
        "name": "长城加油站", 
        "lon": 104.026451, 
        "lat": 30.580316, 
        "type": "加油站" 
    }, 
    { 
        "id": 11, 
        "name": "桂溪南站加油站", 
        "lon": 104.060099, 
        "lat": 30.608153, 
        "type": "加油站" 
    }, 
    { 
        "id": 12, 
        "name": "成都高新区兴达加油站", 
        "lon": 104.030415, 
        "lat": 30.5908, 
        "type": "加油站" 
    }, 
    { 
        "id": 13, 
        "name": "延长壳牌加油站(锦华路站)", 
        "lon": 104.097729, 
        "lat": 30.597947, 
        "type": "加油站" 
    }, 
    { 
        "id": 14, 
        "name": "中国石化金晖加油站", 
        "lon": 104.098723, 
        "lat": 30.598139, 
        "type": "加油站" 
    }, 
    { 
        "id": 15, 
        "name": "中国石化棬子树加油加气站", 
        "lon": 104.102801, 
        "lat": 30.594122, 
        "type": "其它能源站" 
    }, 
    { 
        "id": 16, 
        "name": "延长壳牌大源组团二加油站", 
        "lon": 104.034767, 
        "lat": 30.544123, 
        "type": "加油站" 
    }, 
    { 
        "id": 17, 
        "name": "中国石油棕树加油站(长寿路)", 
        "lon": 104.076729, 
        "lat": 30.611847, 
        "type": "加油站" 
    }, 
    { 
        "id": 18, 
        "name": "延长壳牌加油站(成都市高新区成都高新中和站)", 
        "lon": 104.097542, 
        "lat": 30.542025, 
        "type": "加油站" 
    }, 
    { 
        "id": 19, 
        "name": "中国石油成双加油站", 
        "lon": 104.018722, 
        "lat": 30.575009, 
        "type": "加油站" 
    }, 
    { 
        "id": 20, 
        "name": "中国石油剑南加油站", 
        "lon": 104.047121, 
        "lat": 30.534593, 
        "type": "加油站" 
    }, 
    { 
        "id": 21, 
        "name": "延长壳牌加油站(成新站)", 
        "lon": 104.034885, 
        "lat": 30.608623, 
        "type": "加油站" 
    }, 
    { 
        "id": 22, 
        "name": "桂溪加油站", 
        "lon": 104.077479, 
        "lat": 30.618361, 
        "type": "加油站" 
    }, 
    { 
        "id": 23, 
        "name": "道森能源长风加油站", 
        "lon": 104.02022, 
        "lat": 30.550826, 
        "type": "加油站" 
    }, 
    { 
        "id": 24, 
        "name": "延长壳牌高新大道加油站", 
        "lon": 104.041715, 
        "lat": 30.617425, 
        "type": "加油站" 
    }, 
    { 
        "id": 25, 
        "name": "中国石油高新天山加油站", 
        "lon": 104.054007, 
        "lat": 30.622034, 
        "type": "加油站" 
    }, 
    { 
        "id": 26, 
        "name": "中国石化高新A加油站", 
        "lon": 104.027133, 
        "lat": 30.608959, 
        "type": "加油站" 
    }, 
    { 
        "id": 27, 
        "name": "中国石化高新B加油站", 
        "lon": 104.025772, 
        "lat": 30.608241, 
        "type": "加油站" 
    }, 
    { 
        "id": 28, 
        "name": "中国石油娇子三环(外侧)加油站", 
        "lon": 104.123477, 
        "lat": 30.597027, 
        "type": "加油站" 
    }, 
    { 
        "id": 29, 
        "name": "道森能源华府加油站", 
        "lon": 104.032564, 
        "lat": 30.524427, 
        "type": "加油站" 
    }, 
    { 
        "id": 30, 
        "name": "中国国际能源成都蓉电加油站", 
        "lon": 104.098661, 
        "lat": 30.622705, 
        "type": "加油站" 
    }, 
    { 
        "id": 31, 
        "name": "成通石化高新成通加油站(天府大道南段辅路)", 
        "lon": 104.070777, 
        "lat": 30.515983, 
        "type": "加油站" 
    }, 
    { 
        "id": 32, 
        "name": "中国石油成都交投娇子内侧加油站", 
        "lon": 104.122029, 
        "lat": 30.598541, 
        "type": "加油站" 
    }, 
    { 
        "id": 33, 
        "name": "延长壳牌加油站(成都市武侯区文昌路站)", 
        "lon": 104.002402, 
        "lat": 30.585042, 
        "type": "加油站" 
    }, 
    { 
        "id": 34, 
        "name": "永丰加油站(芳草街)", 
        "lon": 104.049914, 
        "lat": 30.630056, 
        "type": "加油站" 
    }, 
    { 
        "id": 35, 
        "name": "中国石化加油站(二环路东五段)", 
        "lon": 104.095821, 
        "lat": 30.622291, 
        "type": "加油站" 
    }, 
    { 
        "id": 36, 
        "name": "成都交投成都通能CNG娇子立交外侧加气站", 
        "lon": 104.123241, 
        "lat": 30.596946, 
        "type": "其它能源站" 
    }, 
    { 
        "id": 37, 
        "name": "延长壳牌加油站(二环路东五段站)", 
        "lon": 104.098629, 
        "lat": 30.624581, 
        "type": "加油站" 
    }, 
    { 
        "id": 38, 
        "name": "中国石油城南加油站", 
        "lon": 104.074234, 
        "lat": 30.633369, 
        "type": "加油站" 
    }, 
    { 
        "id": 39, 
        "name": "中国石油花果加油站", 
        "lon": 104.113081, 
        "lat": 30.614902, 
        "type": "加油站" 
    }, 
    { 
        "id": 40, 
        "name": "中国石油高新加油站(二环路南四段)", 
        "lon": 104.039716, 
        "lat": 30.628927, 
        "type": "加油站" 
    }, 
    { 
        "id": 41, 
        "name": "中国石油望江加油站", 
        "lon": 104.097513, 
        "lat": 30.627411, 
        "type": "加油站" 
    }, 
    { 
        "id": 42, 
        "name": "中国石油白家加油站", 
        "lon": 104.002017, 
        "lat": 30.545857, 
        "type": "加油站" 
    }, 
    { 
        "id": 43, 
        "name": "延长石油直供新港加油站", 
        "lon": 104.123825, 
        "lat": 30.537822, 
        "type": "加油站" 
    }, 
    { 
        "id": 44, 
        "name": "中国石油宝马加油站", 
        "lon": 104.04123, 
        "lat": 30.51172, 
        "type": "加油站" 
    }, 
    { 
        "id": 45, 
        "name": "中国石化华兴加油站", 
        "lon": 104.069408, 
        "lat": 30.506408, 
        "type": "加油站" 
    }, 
    { 
        "id": 46, 
        "name": "延长壳牌加油站(锦江莲花站)", 
        "lon": 104.101731, 
        "lat": 30.628992, 
        "type": "加油站" 
    }, 
    { 
        "id": 47, 
        "name": "中国石油海地通加油站", 
        "lon": 104.112582, 
        "lat": 30.620082, 
        "type": "加油站" 
    }, 
    { 
        "id": 48, 
        "name": "簇锦石油加油站", 
        "lon": 104.004093, 
        "lat": 30.606909, 
        "type": "加油站" 
    }, 
    { 
        "id": 49, 
        "name": "中国石化三圣加油站", 
        "lon": 104.11955, 
        "lat": 30.620637, 
        "type": "加油站" 
    }, 
    { 
        "id": 50, 
        "name": "中国石油新川加油站", 
        "lon": 104.110685, 
        "lat": 30.518884, 
        "type": "加油站" 
    }, 
    { 
        "id": 51, 
        "name": "中国石油簇桥加油站", 
        "lon": 104.003035, 
        "lat": 30.606014, 
        "type": "加油站" 
    }, 
    { 
        "id": 52, 
        "name": "延长壳牌粉房堰加油站", 
        "lon": 104.143565, 
        "lat": 30.59597, 
        "type": "加油站" 
    }, 
    { 
        "id": 53, 
        "name": "延长壳牌百日红加油站", 
        "lon": 104.138522, 
        "lat": 30.605988, 
        "type": "加油站" 
    }, 
    { 
        "id": 54, 
        "name": "益民CNG加气站", 
        "lon": 103.986903, 
        "lat": 30.598702, 
        "type": "加气站" 
    }, 
    { 
        "id": 55, 
        "name": "中国石油新苗加油站", 
        "lon": 103.987418, 
        "lat": 30.597143, 
        "type": "加油站" 
    }, 
    { 
        "id": 56, 
        "name": "中国石化红牌楼加油站", 
        "lon": 104.027796, 
        "lat": 30.638914, 
        "type": "加油站" 
    }, 
    { 
        "id": 57, 
        "name": "中国石油加油站", 
        "lon": 104.038765, 
        "lat": 30.641394, 
        "type": "加油站" 
    }, 
    { 
        "id": 58, 
        "name": "中国石油望锦加油站", 
        "lon": 103.988027, 
        "lat": 30.598589, 
        "type": "加油站" 
    }, 
    { 
        "id": 59, 
        "name": "中国石油海昌加油站", 
        "lon": 104.082836, 
        "lat": 30.498437, 
        "type": "加油站" 
    }, 
    { 
        "id": 60, 
        "name": "中国石油武侯加油站", 
        "lon": 104.040921, 
        "lat": 30.645257, 
        "type": "加油站" 
    }, 
    { 
        "id": 61, 
        "name": "中国石油红砂南加油站", 
        "lon": 104.154951, 
        "lat": 30.579773, 
        "type": "加油站" 
    }, 
    { 
        "id": 62, 
        "name": "中国石油泰祥加油站", 
        "lon": 104.021809, 
        "lat": 30.640454, 
        "type": "加油站" 
    }, 
    { 
        "id": 63, 
        "name": "中国石油大件路加油站", 
        "lon": 103.976409, 
        "lat": 30.560807, 
        "type": "加油站" 
    }, 
    { 
        "id": 64, 
        "name": "中国石油双流川齿加油站", 
        "lon": 103.980181, 
        "lat": 30.546872, 
        "type": "加油站" 
    }, 
    { 
        "id": 65, 
        "name": "中国石油华阳加油站(二江路一段)", 
        "lon": 104.061277, 
        "lat": 30.493601, 
        "type": "加油站" 
    }, 
    { 
        "id": 66, 
        "name": "中国石油双楠加油站", 
        "lon": 104.021387, 
        "lat": 30.641097, 
        "type": "加油站" 
    }, 
    { 
        "id": 67, 
        "name": "文星城南加油站", 
        "lon": 103.987757, 
        "lat": 30.527617, 
        "type": "加油站" 
    }, 
    { 
        "id": 68, 
        "name": "中国石油成都龙泉加油站", 
        "lon": 104.153891, 
        "lat": 30.606521, 
        "type": "加油站" 
    }, 
    { 
        "id": 69, 
        "name": "中国石油八一加油站", 
        "lon": 103.978404, 
        "lat": 30.602599, 
        "type": "加油站" 
    }, 
    { 
        "id": 70, 
        "name": "中国石油西一加油站", 
        "lon": 104.022728, 
        "lat": 30.646253, 
        "type": "加油站" 
    }, 
    { 
        "id": 71, 
        "name": "中国石化建业加油加气站", 
        "lon": 103.979415, 
        "lat": 30.609367, 
        "type": "其它能源站" 
    }, 
    { 
        "id": 72, 
        "name": "交通油料加油站", 
        "lon": 104.129763, 
        "lat": 30.636004, 
        "type": "加油站" 
    }, 
    { 
        "id": 73, 
        "name": "中国石油二江寺天山加油站", 
        "lon": 104.067235, 
        "lat": 30.489142, 
        "type": "加油站" 
    }, 
    { 
        "id": 74, 
        "name": "中国石油蜀欣加油站", 
        "lon": 104.130542, 
        "lat": 30.636122, 
        "type": "加油站" 
    }, 
    { 
        "id": 75, 
        "name": "中国石化清水河加油站", 
        "lon": 104.030285, 
        "lat": 30.6506, 
        "type": "加油站" 
    }, 
    { 
        "id": 76, 
        "name": "中国石油铁佛加油站", 
        "lon": 103.985962, 
        "lat": 30.62054, 
        "type": "加油站" 
    }, 
    { 
        "id": 77, 
        "name": "道森能源雅华加油站", 
        "lon": 104.15761, 
        "lat": 30.605577, 
        "type": "加油站" 
    }, 
    { 
        "id": 78, 
        "name": "中国石化西区加油站", 
        "lon": 103.984762, 
        "lat": 30.621675, 
        "type": "加油站" 
    }, 
    { 
        "id": 79, 
        "name": "中国石油保和加油站(保和站)", 
        "lon": 104.132551, 
        "lat": 30.637179, 
        "type": "加油站" 
    }, 
    { 
        "id": 80, 
        "name": "杜甫加油站", 
        "lon": 104.021514, 
        "lat": 30.649861, 
        "type": "加油站" 
    }, 
    { 
        "id": 81, 
        "name": "中国石油机场加油站", 
        "lon": 103.966139, 
        "lat": 30.571775, 
        "type": "加油站" 
    }, 
    { 
        "id": 82, 
        "name": "中国航油空港加油站(三站)", 
        "lon": 103.965913, 
        "lat": 30.570837, 
        "type": "加油站" 
    }, 
    { 
        "id": 83, 
        "name": "中国石化柳树加油站", 
        "lon": 104.162846, 
        "lat": 30.600428, 
        "type": "加油站" 
    }, 
    { 
        "id": 84, 
        "name": "中国石油水碾河加油站", 
        "lon": 104.099241, 
        "lat": 30.655945, 
        "type": "加油站" 
    }, 
    { 
        "id": 85, 
        "name": "中国石化奔宏加油站", 
        "lon": 104.023949, 
        "lat": 30.651864, 
        "type": "加油站" 
    }, 
    { 
        "id": 86, 
        "name": "中国石化蓉武加油站", 
        "lon": 103.970675, 
        "lat": 30.603932, 
        "type": "加油站" 
    }, 
    { 
        "id": 87, 
        "name": "中国石化加油站", 
        "lon": 104.147719, 
        "lat": 30.63485, 
        "type": "加油站" 
    }, 
    { 
        "id": 88, 
        "name": "沙湾加油站", 
        "lon": 104.046759, 
        "lat": 30.694685, 
        "type": "加油站" 
    }, 
    { 
        "id": 89, 
        "name": "公兴石油加油站", 
        "lon": 103.99125, 
        "lat": 30.482232, 
        "type": "加油站" 
    }, 
    { 
        "id": 90, 
        "name": "中国石油乐园加油站", 
        "lon": 103.99161, 
        "lat": 30.638343, 
        "type": "加油站" 
    }, 
    { 
        "id": 91, 
        "name": "延长壳牌成都市成华区二环路金美加油站", 
        "lon": 104.114466, 
        "lat": 30.659312, 
        "type": "加油站" 
    }, 
    { 
        "id": 92, 
        "name": "虎威石油加油站", 
        "lon": 103.97769, 
        "lat": 30.644079, 
        "type": "加油站" 
    }, 
    { 
        "id": 93, 
        "name": "中国石化双流区龙桥加油加气站", 
        "lon": 103.941272, 
        "lat": 30.60449, 
        "type": "其它能源站" 
    }, 
    { 
        "id": 94, 
        "name": "中国石油龙宏加油站(成龙大道)", 
        "lon": 104.186931, 
        "lat": 30.568131, 
        "type": "加油站" 
    }, 
    { 
        "id": 95, 
        "name": "成通石化加油站(万安店)", 
        "lon": 104.098716, 
        "lat": 30.483318, 
        "type": "加油站" 
    }, 
    { 
        "id": 96, 
        "name": "中国石化龙泉加油站", 
        "lon": 104.183904, 
        "lat": 30.586276, 
        "type": "加油站" 
    }, 
    { 
        "id": 97, 
        "name": "中国石化三洞桥加油站", 
        "lon": 104.048668, 
        "lat": 30.674254, 
        "type": "加油站" 
    }, 
    { 
        "id": 98, 
        "name": "中国石油鹤林加油站", 
        "lon": 104.030571, 
        "lat": 30.477376, 
        "type": "加油站" 
    }, 
    { 
        "id": 99, 
        "name": "中国石油保和内侧加油站", 
        "lon": 104.148197, 
        "lat": 30.629248, 
        "type": "加油站" 
    }, 
    { 
        "id": 100, 
        "name": "延长石油直供加油站(双凤站)", 
        "lon": 103.968424, 
        "lat": 30.61511, 
        "type": "加油站" 
    }, 
    { 
        "id": 101, 
        "name": "延长壳牌加油站(成都市龙泉驿区老成渝路站)", 
        "lon": 104.216302, 
        "lat": 30.57476, 
        "type": "加油站" 
    }, 
    { 
        "id": 102, 
        "name": "道森能源热华加油站", 
        "lon": 104.131537, 
        "lat": 30.66062, 
        "type": "加油站" 
    }, 
    { 
        "id": 103, 
        "name": "中国石油保和外侧加油站", 
        "lon": 104.15132, 
        "lat": 30.630158, 
        "type": "加油站" 
    }, 
    { 
        "id": 104, 
        "name": "中国石油公兴加油站", 
        "lon": 103.978043, 
        "lat": 30.481219, 
        "type": "加油站" 
    }, 
    { 
        "id": 105, 
        "name": "府青路加油站", 
        "lon": 104.098634, 
        "lat": 30.681953, 
        "type": "加油站" 
    }, 
    { 
        "id": 106, 
        "name": "中国石油青羊加油站", 
        "lon": 104.037547, 
        "lat": 30.667843, 
        "type": "加油站" 
    }, 
    { 
        "id": 107, 
        "name": "中国石油万年加油站", 
        "lon": 104.119124, 
        "lat": 30.655334, 
        "type": "加油站" 
    }, 
    { 
        "id": 108, 
        "name": "中国航油空港一站机场加油站", 
        "lon": 103.96003, 
        "lat": 30.568599, 
        "type": "加油站" 
    }, 
    { 
        "id": 109, 
        "name": "中国石油果堰加油站", 
        "lon": 103.987883, 
        "lat": 30.643888, 
        "type": "加油站" 
    }, 
    { 
        "id": 110, 
        "name": "中国石油芙蓉城北加油站", 
        "lon": 104.088857, 
        "lat": 30.680308, 
        "type": "加油站" 
    }, 
    { 
        "id": 111, 
        "name": "正兴石油加油站(双流区正兴镇人民政府东北)", 
        "lon": 104.04604, 
        "lat": 30.447627, 
        "type": "加油站" 
    }, 
    { 
        "id": 112, 
        "name": "道森能源绿色加油站", 
        "lon": 103.922657, 
        "lat": 30.580958, 
        "type": "加油站" 
    }, 
    { 
        "id": 113, 
        "name": "中国石油金江加油站", 
        "lon": 103.928615, 
        "lat": 30.602051, 
        "type": "加油站" 
    }, 
    { 
        "id": 114, 
        "name": "中国石油新兴工业园加油站", 
        "lon": 104.180582, 
        "lat": 30.533359, 
        "type": "加油站" 
    }, 
    { 
        "id": 115, 
        "name": "中国石油万里加油站", 
        "lon": 104.120019, 
        "lat": 30.477167, 
        "type": "加油站" 
    }, 
    { 
        "id": 116, 
        "name": "中国石化蜀道能源成南加油站(A站)", 
        "lon": 104.169844, 
        "lat": 30.67026, 
        "type": "加油站" 
    }, 
    { 
        "id": 117, 
        "name": "中国石油蜀汉路加油站", 
        "lon": 104.019345, 
        "lat": 30.688782, 
        "type": "加油站" 
    }, 
    { 
        "id": 118, 
        "name": "中国石油蓉东加油站", 
        "lon": 104.170681, 
        "lat": 30.645309, 
        "type": "加油站" 
    }, 
    { 
        "id": 119, 
        "name": "中化石油成都晋阳加油站", 
        "lon": 103.995947, 
        "lat": 30.649741, 
        "type": "加油站" 
    }, 
    { 
        "id": 120, 
        "name": "延长壳牌加油站(青羊苏坡)", 
        "lon": 103.975933, 
        "lat": 30.674501, 
        "type": "加油站" 
    }, 
    { 
        "id": 121, 
        "name": "中国石油城东加油站", 
        "lon": 103.937523, 
        "lat": 30.582045, 
        "type": "加油站" 
    }, 
    { 
        "id": 122, 
        "name": "中国石化蓉新加油站", 
        "lon": 104.116747, 
        "lat": 30.677302, 
        "type": "加油站" 
    }, 
    { 
        "id": 123, 
        "name": "延长壳牌崔家店路加油站", 
        "lon": 104.137636, 
        "lat": 30.670126, 
        "type": "加油站" 
    }, 
    { 
        "id": 124, 
        "name": "八里庄加油站", 
        "lon": 104.10358, 
        "lat": 30.69504, 
        "type": "加油站" 
    }, 
    { 
        "id": 125, 
        "name": "中国石化建工加油站", 
        "lon": 104.032002, 
        "lat": 30.683982, 
        "type": "加油站" 
    }, 
    { 
        "id": 126, 
        "name": "中国石油白伦加油站", 
        "lon": 104.022039, 
        "lat": 30.665307, 
        "type": "加油站" 
    }, 
    { 
        "id": 127, 
        "name": "成都交投新能源新华市政加油站", 
        "lon": 104.129201, 
        "lat": 30.647999, 
        "type": "加油站" 
    }, 
    { 
        "id": 128, 
        "name": "中国石油成都东服务区加油站", 
        "lon": 104.205008, 
        "lat": 30.627882, 
        "type": "加油站" 
    }, 
    { 
        "id": 129, 
        "name": "天府石油桃蹊加油站", 
        "lon": 104.10661, 
        "lat": 30.680378, 
        "type": "加油站" 
    }, 
    { 
        "id": 130, 
        "name": "成都鲁能八里庄加气站", 
        "lon": 104.105529, 
        "lat": 30.681667, 
        "type": "加气站" 
    }, 
    { 
        "id": 131, 
        "name": "延长壳牌加油站(成都市龙泉驿区成都龙泉柏合站)", 
        "lon": 104.208186, 
        "lat": 30.509067, 
        "type": "加油站" 
    }, 
    { 
        "id": 132, 
        "name": "大面加油站", 
        "lon": 104.182901, 
        "lat": 30.588741, 
        "type": "加油站" 
    }, 
    { 
        "id": 133, 
        "name": "中国石化石佛加油站", 
        "lon": 103.932688, 
        "lat": 30.574589, 
        "type": "加油站" 
    }, 
    { 
        "id": 134, 
        "name": "中国石油长运司苏坡加油站", 
        "lon": 104.003853, 
        "lat": 30.665922, 
        "type": "加油站" 
    }, 
    { 
        "id": 135, 
        "name": "成都铁路加油站", 
        "lon": 104.066546, 
        "lat": 30.691113, 
        "type": "加油站" 
    }, 
    { 
        "id": 136, 
        "name": "中国石化城中加油站", 
        "lon": 103.931282, 
        "lat": 30.571124, 
        "type": "加油站" 
    }, 
    { 
        "id": 137, 
        "name": "中国石油成都光华加油站", 
        "lon": 103.988068, 
        "lat": 30.665457, 
        "type": "加油站" 
    }, 
    { 
        "id": 138, 
        "name": "中国航油双流世纪加油站", 
        "lon": 103.914386, 
        "lat": 30.591798, 
        "type": "加油站" 
    }, 
    { 
        "id": 139, 
        "name": "中国石油理工大学合作加油站", 
        "lon": 104.142427, 
        "lat": 30.6772, 
        "type": "加油站" 
    }, 
    { 
        "id": 140, 
        "name": "中国石油广都加油站", 
        "lon": 103.92189, 
        "lat": 30.550523, 
        "type": "加油站" 
    }, 
    { 
        "id": 141, 
        "name": "中国石化白果林加油站", 
        "lon": 104.032982, 
        "lat": 30.67371, 
        "type": "加油站" 
    }, 
    { 
        "id": 142, 
        "name": "道森能源凯天加油站", 
        "lon": 103.971039, 
        "lat": 30.683609, 
        "type": "加油站" 
    }, 
    { 
        "id": 143, 
        "name": "平德加油站", 
        "lon": 103.923428, 
        "lat": 30.621065, 
        "type": "加油站" 
    }, 
    { 
        "id": 144, 
        "name": "中国石化苏坡加油站", 
        "lon": 103.993145, 
        "lat": 30.679596, 
        "type": "加油站" 
    }, 
    { 
        "id": 145, 
        "name": "中国石油花龙门加油站", 
        "lon": 103.976715, 
        "lat": 30.658481, 
        "type": "加油站" 
    }, 
    { 
        "id": 146, 
        "name": "中国石油蜀道能源成都东服务区加油站", 
        "lon": 104.20634, 
        "lat": 30.628186, 
        "type": "加油站" 
    }, 
    { 
        "id": 147, 
        "name": "中国石油营门口加油站", 
        "lon": 104.037535, 
        "lat": 30.691325, 
        "type": "加油站" 
    }, 
    { 
        "id": 148, 
        "name": "成都通能保外加气站", 
        "lon": 104.151108, 
        "lat": 30.630234, 
        "type": "其它能源站" 
    }, 
    { 
        "id": 149, 
        "name": "中国石油羊西加油站", 
        "lon": 104.011012, 
        "lat": 30.696197, 
        "type": "加油站" 
    }, 
    { 
        "id": 150, 
        "name": "中国石油九里堤加油站", 
        "lon": 104.057421, 
        "lat": 30.691509, 
        "type": "加油站" 
    }, 
    { 
        "id": 151, 
        "name": "九江加油站", 
        "lon": 103.912906, 
        "lat": 30.614566, 
        "type": "加油站" 
    }, 
    { 
        "id": 152, 
        "name": "中国石油龙潭加油站", 
        "lon": 104.162545, 
        "lat": 30.691837, 
        "type": "加油站" 
    }, 
    { 
        "id": 153, 
        "name": "中国石油二仙桥加油站", 
        "lon": 104.13047, 
        "lat": 30.683206, 
        "type": "加油站" 
    }, 
    { 
        "id": 154, 
        "name": "中国石油浣花加油站", 
        "lon": 104.020975, 
        "lat": 30.673019, 
        "type": "加油站" 
    }, 
    { 
        "id": 155, 
        "name": "中国石化板桥加油加气站", 
        "lon": 103.908233, 
        "lat": 30.545276, 
        "type": "其它能源站" 
    }, 
    { 
        "id": 156, 
        "name": "中国石化花园加油站", 
        "lon": 104.132301, 
        "lat": 30.675734, 
        "type": "加油站" 
    }, 
    { 
        "id": 157, 
        "name": "中国石化成南加油站(B站)", 
        "lon": 104.169658, 
        "lat": 30.671357, 
        "type": "加油站" 
    }, 
    { 
        "id": 158, 
        "name": "中国石油摸底河内侧加油站", 
        "lon": 103.998736, 
        "lat": 30.685218, 
        "type": "加油站" 
    }, 
    { 
        "id": 159, 
        "name": "中国石油李家沱加油站", 
        "lon": 104.0931, 
        "lat": 30.685386, 
        "type": "加油站" 
    }, 
    { 
        "id": 160, 
        "name": "中国石油天投中油加油站(云龙站)", 
        "lon": 104.051163, 
        "lat": 30.437403, 
        "type": "加油站" 
    }, 
    { 
        "id": 161, 
        "name": "延长壳牌加油站(金府路站)", 
        "lon": 104.03446, 
        "lat": 30.710887, 
        "type": "加油站" 
    }, 
    { 
        "id": 162, 
        "name": "中国石油二环加油站", 
        "lon": 104.105868, 
        "lat": 30.681013, 
        "type": "加油站" 
    }, 
    { 
        "id": 163, 
        "name": "中国石油苏坡天山加油站", 
        "lon": 103.955442, 
        "lat": 30.679067, 
        "type": "加油站" 
    }, 
    { 
        "id": 164, 
        "name": "金苏加油站", 
        "lon": 103.976902, 
        "lat": 30.668236, 
        "type": "加油站" 
    }, 
    { 
        "id": 165, 
        "name": "中国石油龙泉长远加油站", 
        "lon": 104.247068, 
        "lat": 30.541349, 
        "type": "加油站" 
    }, 
    { 
        "id": 166, 
        "name": "聚财石油加油站", 
        "lon": 103.957096, 
        "lat": 30.638761, 
        "type": "加油站" 
    }, 
    { 
        "id": 167, 
        "name": "成都交投市政十陵加油站", 
        "lon": 104.168704, 
        "lat": 30.645348, 
        "type": "加油站" 
    }, 
    { 
        "id": 168, 
        "name": "中国石油保水加油站", 
        "lon": 104.103494, 
        "lat": 30.419864, 
        "type": "加油站" 
    }, 
    { 
        "id": 169, 
        "name": "中国石化华夏加油站", 
        "lon": 104.02264, 
        "lat": 30.704704, 
        "type": "加油站" 
    }, 
    { 
        "id": 170, 
        "name": "中国石化白沙加油站", 
        "lon": 104.151853, 
        "lat": 30.471464, 
        "type": "加油站" 
    }, 
    { 
        "id": 171, 
        "name": "中国石化双水加油站", 
        "lon": 104.085628, 
        "lat": 30.711137, 
        "type": "加油站" 
    }, 
    { 
        "id": 172, 
        "name": "新秦石油加油站", 
        "lon": 104.056459, 
        "lat": 30.41641, 
        "type": "加油站" 
    }, 
    { 
        "id": 173, 
        "name": "中国石油板桥加油站", 
        "lon": 103.906354, 
        "lat": 30.545598, 
        "type": "加油站" 
    }, 
    { 
        "id": 174, 
        "name": "成都交投华民市政加油站", 
        "lon": 104.098584, 
        "lat": 30.680363, 
        "type": "加油站" 
    }, 
    { 
        "id": 175, 
        "name": "延长壳牌加油站(成都市成华区昭觉寺路站)", 
        "lon": 104.104762, 
        "lat": 30.716206, 
        "type": "加油站" 
    }, 
    { 
        "id": 176, 
        "name": "中国石油双流胜利加油站", 
        "lon": 103.914, 
        "lat": 30.52545, 
        "type": "加油站" 
    }, 
    { 
        "id": 177, 
        "name": "中国石油五块石加油站", 
        "lon": 104.069716, 
        "lat": 30.702264, 
        "type": "加油站" 
    }, 
    { 
        "id": 178, 
        "name": "四川汉宏能源有限公司双流彭镇加油站", 
        "lon": 103.884081, 
        "lat": 30.582787, 
        "type": "加油站" 
    }, 
    { 
        "id": 179, 
        "name": "中国石油摸底河外侧加油站", 
        "lon": 103.997439, 
        "lat": 30.686567, 
        "type": "加油站" 
    }, 
    { 
        "id": 180, 
        "name": "中国石油川陕加油站", 
        "lon": 104.100991, 
        "lat": 30.717592, 
        "type": "加油站" 
    }, 
    { 
        "id": 181, 
        "name": "中国石油界牌加油站(南京路)", 
        "lon": 104.250255, 
        "lat": 30.564638, 
        "type": "加油站" 
    }, 
    { 
        "id": 182, 
        "name": "中国石化羊西北加油加气站", 
        "lon": 103.971397, 
        "lat": 30.733723, 
        "type": "其它能源站" 
    }, 
    { 
        "id": 183, 
        "name": "延长壳牌加油站(成都市温江区成都绕城高速公路西服务区内侧站)", 
        "lon": 103.935666, 
        "lat": 30.721464, 
        "type": "加油站" 
    }, 
    { 
        "id": 184, 
        "name": "中国石化启阳万安加油站", 
        "lon": 104.123852, 
        "lat": 30.477513, 
        "type": "加油站" 
    }, 
    { 
        "id": 185, 
        "name": "中国石油金牛坝加油站", 
        "lon": 104.011995, 
        "lat": 30.717859, 
        "type": "加油站" 
    }, 
    { 
        "id": 186, 
        "name": "中国石化郎家加油站", 
        "lon": 104.002334, 
        "lat": 30.6972, 
        "type": "加油站" 
    }, 
    { 
        "id": 187, 
        "name": "延长壳牌蜀西路加油站", 
        "lon": 103.985035, 
        "lat": 30.717185, 
        "type": "加油站" 
    }, 
    { 
        "id": 188, 
        "name": "泉水加油站(双九路)", 
        "lon": 103.907641, 
        "lat": 30.622874, 
        "type": "加油站" 
    }, 
    { 
        "id": 189, 
        "name": "中国石油八里庄加油站(圣合巷)", 
        "lon": 104.111092, 
        "lat": 30.685507, 
        "type": "加油站" 
    }, 
    { 
        "id": 190, 
        "name": "龙向石油加油站", 
        "lon": 104.157007, 
        "lat": 30.69333, 
        "type": "加油站" 
    }, 
    { 
        "id": 191, 
        "name": "中国石油平安加油站(二环路北四段)", 
        "lon": 104.095481, 
        "lat": 30.68952, 
        "type": "加油站" 
    }, 
    { 
        "id": 192, 
        "name": "中国石油龙泉西河加油站", 
        "lon": 104.22822, 
        "lat": 30.654032, 
        "type": "加油站" 
    }, 
    { 
        "id": 193, 
        "name": "中国石化龙潭加油站", 
        "lon": 104.166125, 
        "lat": 30.702466, 
        "type": "加油站" 
    }, 
    { 
        "id": 194, 
        "name": "中国石油宝塘加油站", 
        "lon": 104.094324, 
        "lat": 30.412116, 
        "type": "加油站" 
    }, 
    { 
        "id": 195, 
        "name": "中国石油金宏运加油加气站", 
        "lon": 104.012458, 
        "lat": 30.704507, 
        "type": "其它能源站" 
    }, 
    { 
        "id": 196, 
        "name": "永宏加油站", 
        "lon": 103.999822, 
        "lat": 30.706479, 
        "type": "加油站" 
    }, 
    { 
        "id": 197, 
        "name": "中国石油联工加油站", 
        "lon": 103.981523, 
        "lat": 30.687272, 
        "type": "加油站" 
    }, 
    { 
        "id": 198, 
        "name": "延长壳牌金泉路加油站", 
        "lon": 104.007442, 
        "lat": 30.725891, 
        "type": "加油站" 
    }, 
    { 
        "id": 199, 
        "name": "中国石油百花加油站", 
        "lon": 103.920283, 
        "lat": 30.675843, 
        "type": "加油站" 
    }, 
    { 
        "id": 200, 
        "name": "中国石油长久加油站", 
        "lon": 104.039353, 
        "lat": 30.709001, 
        "type": "加油站" 
    }, 
    { 
        "id": 201, 
        "name": "远星智慧工厂", 
        "lon": 103.490689, 
        "lat": 30.538191, 
        "type": "工厂" 
    }, 
    { 
        "id": 202, 
        "name": "香柏居家具工厂", 
        "lon": 103.568715, 
        "lat": 30.789458, 
        "type": "工厂" 
    }, 
    { 
        "id": 203, 
        "name": "中念家具工厂", 
        "lon": 103.636489, 
        "lat": 30.865657, 
        "type": "购物相关场所" 
    }, 
    { 
        "id": 204, 
        "name": "建新佛灯油厂", 
        "lon": 103.662127, 
        "lat": 30.44142, 
        "type": "工厂" 
    }, 
    { 
        "id": 205, 
        "name": "金柏莱家居工厂", 
        "lon": 103.689851, 
        "lat": 30.594341, 
        "type": "工厂" 
    }, 
    { 
        "id": 206, 
        "name": "欣宇昇智能门窗工厂店", 
        "lon": 103.690785, 
        "lat": 30.600563, 
        "type": "家居建材市场" 
    }, 
    { 
        "id": 207, 
        "name": "梵木定制工厂", 
        "lon": 103.698388, 
        "lat": 30.615546, 
        "type": "工厂" 
    }, 
    { 
        "id": 208, 
        "name": "丰修科技成都崇州维修工厂", 
        "lon": 103.715675, 
        "lat": 30.602875, 
        "type": "公司" 
    }, 
    { 
        "id": 209, 
        "name": "有景全屋整装定制工厂", 
        "lon": 103.735494, 
        "lat": 30.521235, 
        "type": "工厂" 
    }, 
    { 
        "id": 210, 
        "name": "欣桭门窗工厂店", 
        "lon": 103.752663, 
        "lat": 30.636473, 
        "type": "家居建材市场" 
    }, 
    { 
        "id": 211, 
        "name": "成都市美怡美居定制工厂", 
        "lon": 103.741319, 
        "lat": 30.510594, 
        "type": "工厂" 
    }, 
    { 
        "id": 212, 
        "name": "成都嘎嘎辣卤工厂", 
        "lon": 103.775509, 
        "lat": 30.66015, 
        "type": "工厂" 
    }, 
    { 
        "id": 213, 
        "name": "驿灵家居工厂", 
        "lon": 103.793319, 
        "lat": 30.551521, 
        "type": "工厂" 
    }, 
    { 
        "id": 214, 
        "name": "宏瑞世家全铝定制家具工厂", 
        "lon": 103.810333, 
        "lat": 30.565247, 
        "type": "工厂" 
    }, 
    { 
        "id": 215, 
        "name": "成都宫亿家居定制源头工厂", 
        "lon": 103.813275, 
        "lat": 30.576675, 
        "type": "工厂" 
    }, 
    { 
        "id": 216, 
        "name": "Model工厂", 
        "lon": 103.823521, 
        "lat": 30.588051, 
        "type": "工厂" 
    }, 
    { 
        "id": 217, 
        "name": "成都杉艺全屋定制工厂", 
        "lon": 103.904097, 
        "lat": 31.026165, 
        "type": "家居建材市场" 
    }, 
    { 
        "id": 218, 
        "name": "爱尚多彩阳光工厂展厅", 
        "lon": 103.860341, 
        "lat": 30.579835, 
        "type": "购物相关场所" 
    }, 
    { 
        "id": 219, 
        "name": "陇盛软装定制工厂", 
        "lon": 103.879794, 
        "lat": 30.627682, 
        "type": "工厂" 
    }, 
    { 
        "id": 220, 
        "name": "九洲昌隆高标准智能化农产品加工工厂", 
        "lon": 103.891323, 
        "lat": 30.612853, 
        "type": "工厂" 
    }, 
    { 
        "id": 221, 
        "name": "九洲昌隆高标准智能化农产品加工工厂", 
        "lon": 103.891323, 
        "lat": 30.612853, 
        "type": "工厂" 
    }, 
    { 
        "id": 222, 
        "name": "东旭光电工厂", 
        "lon": 103.93033, 
        "lat": 30.809186, 
        "type": "工厂" 
    }, 
    { 
        "id": 223, 
        "name": "四川斯卡丹窗饰工厂", 
        "lon": 103.951375, 
        "lat": 30.940575, 
        "type": "工厂" 
    }, 
    { 
        "id": 224, 
        "name": "断桥铝系统窗·工厂直营店", 
        "lon": 103.910267, 
        "lat": 30.636943, 
        "type": "家居建材市场" 
    }, 
    { 
        "id": 225, 
        "name": "成都漆朵朵艺术漆工厂直购平台", 
        "lon": 103.93345, 
        "lat": 30.578698, 
        "type": "家居建材市场" 
    }, 
    { 
        "id": 226, 
        "name": "达创雕塑工厂(泡沫雕塑·玻璃钢造型)", 
        "lon": 104.003425, 
        "lat": 31.009825, 
        "type": "工厂" 
    }, 
    { 
        "id": 227, 
        "name": "格创发泡陶瓷工厂", 
        "lon": 104.003475, 
        "lat": 31.009925, 
        "type": "工厂" 
    }, 
    { 
        "id": 228, 
        "name": "家旺和电动车工厂", 
        "lon": 103.971854, 
        "lat": 30.739132, 
        "type": "工厂" 
    }, 
    { 
        "id": 229, 
        "name": "莱米特高端定制工厂", 
        "lon": 104.000728, 
        "lat": 30.890441, 
        "type": "工厂" 
    }, 
    { 
        "id": 230, 
        "name": "安能智慧门窗工厂直营店", 
        "lon": 103.980136, 
        "lat": 30.713484, 
        "type": "家居建材市场" 
    }, 
    { 
        "id": 231, 
        "name": "柯莱恩全屋定制工厂", 
        "lon": 104.013198, 
        "lat": 30.857837, 
        "type": "工厂" 
    }, 
    { 
        "id": 232, 
        "name": "圣象家居地板木门衣柜工厂销售中心", 
        "lon": 104.013556, 
        "lat": 30.851187, 
        "type": "家居建材市场" 
    }, 
    { 
        "id": 233, 
        "name": "小天材成都家居工厂(武侯店)", 
        "lon": 103.976936, 
        "lat": 30.600422, 
        "type": "家居建材市场" 
    }, 
    { 
        "id": 234, 
        "name": "卡乐洗鞋智能中央工厂", 
        "lon": 103.964082, 
        "lat": 30.482702, 
        "type": "工厂" 
    }, 
    { 
        "id": 235, 
        "name": "金柏莱全屋定制工厂", 
        "lon": 103.988761, 
        "lat": 30.629065, 
        "type": "工厂" 
    }, 
    { 
        "id": 236, 
        "name": "本色恩UT她香薰工厂", 
        "lon": 104.008008, 
        "lat": 30.704858, 
        "type": "工厂" 
    }, 
    { 
        "id": 237, 
        "name": "成都鑫希望小吃餐车定制工厂", 
        "lon": 104.034278, 
        "lat": 30.805985, 
        "type": "工厂" 
    }, 
    { 
        "id": 238, 
        "name": "米兰定制家具·定制家具源头工厂", 
        "lon": 104.036011, 
        "lat": 30.809527, 
        "type": "工厂" 
    }, 
    { 
        "id": 239, 
        "name": "椒豫留香调味工厂", 
        "lon": 104.028753, 
        "lat": 30.74922, 
        "type": "工厂" 
    }, 
    { 
        "id": 240, 
        "name": "全屋定制源头工厂", 
        "lon": 104.03638, 
        "lat": 30.794008, 
        "type": "工厂" 
    }, 
    { 
        "id": 241, 
        "name": "成都食膳汇食品工厂店", 
        "lon": 104.029697, 
        "lat": 30.742824, 
        "type": "购物相关场所" 
    }, 
    { 
        "id": 242, 
        "name": "新岩素岩板定制工厂", 
        "lon": 104.082884, 
        "lat": 30.881058, 
        "type": "工厂" 
    }, 
    { 
        "id": 243, 
        "name": "成都易天梭软膜工厂", 
        "lon": 104.076365, 
        "lat": 30.82896, 
        "type": "工厂" 
    }, 
    { 
        "id": 244, 
        "name": "弘威电梯四川全球工厂店", 
        "lon": 104.032786, 
        "lat": 30.481378, 
        "type": "公司" 
    }, 
    { 
        "id": 245, 
        "name": "布谷鸟木地板工厂", 
        "lon": 104.122787, 
        "lat": 30.83866, 
        "type": "工厂" 
    }, 
    { 
        "id": 246, 
        "name": "兰蓉坊萃甘肃味工厂", 
        "lon": 104.080245, 
        "lat": 30.478183, 
        "type": "工厂" 
    }, 
    { 
        "id": 247, 
        "name": "道聚汇婚礼工厂", 
        "lon": 104.146697, 
        "lat": 30.549408, 
        "type": "工厂" 
    }, 
    { 
        "id": 248, 
        "name": "成都海逸机电设备有限公司工厂", 
        "lon": 104.179004, 
        "lat": 30.544214, 
        "type": "工厂" 
    }, 
    { 
        "id": 249, 
        "name": "爱乐梦工厂", 
        "lon": 104.187864, 
        "lat": 30.582358, 
        "type": "体育休闲服务场所" 
    }, 
    { 
        "id": 250, 
        "name": "鸿涂广告字牌工厂", 
        "lon": 104.208935, 
        "lat": 30.706641, 
        "type": "工厂" 
    }, 
    { 
        "id": 251, 
        "name": "科菲诺门窗工厂直营店", 
        "lon": 104.252435, 
        "lat": 30.874185, 
        "type": "家居建材市场" 
    }, 
    { 
        "id": 252, 
        "name": "磨石工厂运营中心", 
        "lon": 104.255194, 
        "lat": 30.836465, 
        "type": "公司" 
    }, 
    { 
        "id": 253, 
        "name": "麦吉可供应链伊森诚品中央工厂优力城市共配中心", 
        "lon": 104.209873, 
        "lat": 30.528495, 
        "type": "工厂" 
    }, 
    { 
        "id": 254, 
        "name": "成都尚昇厨卫工厂", 
        "lon": 104.264228, 
        "lat": 30.848824, 
        "type": "工厂" 
    }, 
    { 
        "id": 255, 
        "name": "西河沙石工厂", 
        "lon": 104.239747, 
        "lat": 30.634824, 
        "type": "工厂" 
    }, 
    { 
        "id": 256, 
        "name": "兰博整体卫浴工厂", 
        "lon": 104.272807, 
        "lat": 30.784422, 
        "type": "工厂" 
    }, 
    { 
        "id": 257, 
        "name": "成都森派全屋定制工厂", 
        "lon": 104.280037, 
        "lat": 30.707111, 
        "type": "公司" 
    }, 
    { 
        "id": 258, 
        "name": "鑫翊超全屋整装定制工厂", 
        "lon": 104.28136, 
        "lat": 30.707296, 
        "type": "工厂" 
    }, 
    { 
        "id": 259, 
        "name": "成都发电机工厂", 
        "lon": 104.309736, 
        "lat": 30.855225, 
        "type": "工厂" 
    }, 
    { 
        "id": 260, 
        "name": "金堂嘉禾门窗工厂直营店", 
        "lon": 104.426144, 
        "lat": 30.868057, 
        "type": "家居建材市场" 
    }, 
    { 
        "id": 261, 
        "name": "建院油厂", 
        "lon": 104.514275, 
        "lat": 30.420525, 
        "type": "工厂" 
    }, 
    { 
        "id": 262, 
        "name": "美霖定制家具源头工厂", 
        "lon": 104.568318, 
        "lat": 30.350137, 
        "type": "工厂" 
    }, 
    { 
        "id": 263, 
        "name": "民净洗护工厂", 
        "lon": 104.579903, 
        "lat": 30.334367, 
        "type": "工厂" 
    }, 
    { 
        "id": 264, 
        "name": "雀康成都工厂", 
        "lon": 103.697929, 
        "lat": 30.600294, 
        "type": "公司" 
    }, 
    { 
        "id": 265, 
        "name": "德贝希门窗工厂直营中心", 
        "lon": 103.519049, 
        "lat": 30.198595, 
        "type": "家居建材市场" 
    }, 
    { 
        "id": 266, 
        "name": "台丰水漆工厂店", 
        "lon": 104.005987, 
        "lat": 30.608658, 
        "type": "家居建材市场" 
    }, 
    { 
        "id": 267, 
        "name": "广州酷斑家居工厂总部", 
        "lon": 104.011617, 
        "lat": 30.858807, 
        "type": "公司" 
    }, 
    { 
        "id": 268, 
        "name": "成都富瑞源家具工厂", 
        "lon": 103.810957, 
        "lat": 30.579447, 
        "type": "工厂" 
    }, 
    { 
        "id": 269, 
        "name": "鑫铂爵门窗工厂", 
        "lon": 103.904451, 
        "lat": 30.617313, 
        "type": "家居建材市场" 
    }, 
    { 
        "id": 270, 
        "name": "四川锦华东电缆集团有限公司工厂", 
        "lon": 103.729104, 
        "lat": 30.503109, 
        "type": "工厂" 
    }, 
    { 
        "id": 271, 
        "name": "爱衣橱服饰工厂", 
        "lon": 104.065176, 
        "lat": 30.82506, 
        "type": "工厂" 
    }, 
    { 
        "id": 272, 
        "name": "创鑫展览展柜工厂", 
        "lon": 103.992267, 
        "lat": 30.804012, 
        "type": "公司" 
    }, 
    { 
        "id": 273, 
        "name": "成都清凡卫浴有限公司(生产工厂)", 
        "lon": 104.379397, 
        "lat": 30.924701, 
        "type": "工厂" 
    }, 
    { 
        "id": 274, 
        "name": "农夫山泉都江堰青城山工厂", 
        "lon": 103.683843, 
        "lat": 31.022711, 
        "type": "公司" 
    }, 
    { 
        "id": 275, 
        "name": "蓝喜衣柜智能灯光工厂", 
        "lon": 104.007309, 
        "lat": 30.874369, 
        "type": "工厂" 
    }, 
    { 
        "id": 276, 
        "name": "木源集地板工厂", 
        "lon": 103.930254, 
        "lat": 30.620416, 
        "type": "工厂" 
    }, 
    { 
        "id": 277, 
        "name": "金福莱门窗工厂直营新繁店", 
        "lon": 104.018333, 
        "lat": 30.872343, 
        "type": "家居建材市场" 
    }, 
    { 
        "id": 278, 
        "name": "木语巢全屋定制家具工厂", 
        "lon": 104.034391, 
        "lat": 30.806239, 
        "type": "工厂" 
    }, 
    { 
        "id": 279, 
        "name": "佰斯帝门窗成华工厂店", 
        "lon": 104.092434, 
        "lat": 30.690796, 
        "type": "家居建材市场" 
    }, 
    { 
        "id": 280, 
        "name": "柒色兰庭·佳华定型窗帘工厂", 
        "lon": 104.058014, 
        "lat": 30.793596, 
        "type": "工厂" 
    }, 
    { 
        "id": 281, 
        "name": "木语巢全屋定制家具工厂", 
        "lon": 104.034391, 
        "lat": 30.806239, 
        "type": "工厂" 
    }, 
    { 
        "id": 282, 
        "name": "佰斯帝门窗成华工厂店", 
        "lon": 104.092434, 
        "lat": 30.690796, 
        "type": "家居建材市场" 
    }, 
    { 
        "id": 283, 
        "name": "柒色兰庭·佳华定型窗帘工厂", 
        "lon": 104.058014, 
        "lat": 30.793596, 
        "type": "工厂" 
    }, 
    { 
        "id": 284, 
        "name": "小吃车三轮餐车定制工厂", 
        "lon": 103.820265, 
        "lat": 30.667053, 
        "type": "公司" 
    }, 
    { 
        "id": 285, 
        "name": "五七零一工厂", 
        "lon": 104.012498, 
        "lat": 30.605934, 
        "type": "工厂" 
    }, 
    { 
        "id": 286, 
        "name": "希望森兰新津工厂", 
        "lon": 103.90289, 
        "lat": 30.372955, 
        "type": "工厂" 
    }, 
    { 
        "id": 287, 
        "name": "安飞岛台岩板定制工厂", 
        "lon": 104.019586, 
        "lat": 30.840402, 
        "type": "工厂" 
    }, 
    { 
        "id": 288, 
        "name": "东方莱茵家居工厂", 
        "lon": 104.002139, 
        "lat": 30.88339, 
        "type": "工厂" 
    }, 
    { 
        "id": 289, 
        "name": "千紫门窗工厂直营店(恒大城店)", 
        "lon": 103.849387, 
        "lat": 30.680647, 
        "type": "家居建材市场" 
    }, 
    { 
        "id": 290, 
        "name": "皇雅系统门窗.成都分工厂", 
        "lon": 103.90218, 
        "lat": 30.612936, 
        "type": "工厂" 
    }, 
    { 
        "id": 291, 
        "name": "源头工厂", 
        "lon": 103.976581, 
        "lat": 30.821676, 
        "type": "工厂" 
    }, 
    { 
        "id": 292, 
        "name": "佳德斯系统门窗加工厂", 
        "lon": 104.206098, 
        "lat": 30.868081, 
        "type": "工厂" 
    }, 
    { 
        "id": 293, 
        "name": "成都铁人雕塑标识工厂", 
        "lon": 103.984777, 
        "lat": 30.950615, 
        "type": "工厂" 
    }, 
    { 
        "id": 294, 
        "name": "成都智明达电子股份有限公司", 
        "lon": 103.958964, 
        "lat": 30.683903, 
        "type": "公司" 
    }, 
    { 
        "id": 295, 
        "name": "蜂巢能源科技(成都)有限公司", 
        "lon": 104.443704, 
        "lat": 30.46867, 
        "type": "工厂" 
    }, 
    { 
        "id": 296, 
        "name": "汽修厂", 
        "lon": 103.651252, 
        "lat": 30.633025, 
        "type": "汽车维修" 
    }, 
    { 
        "id": 297, 
        "name": "津川汽修厂", 
        "lon": 103.799193, 
        "lat": 30.432832, 
        "type": "汽车维修" 
    }, 
    { 
        "id": 298, 
        "name": "郫都区安德东城汽修厂", 
        "lon": 103.787597, 
        "lat": 30.87668, 
        "type": "汽车维修" 
    }, 
    { 
        "id": 299, 
        "name": "津州汽修厂", 
        "lon": 103.844503, 
        "lat": 30.429478, 
        "type": "汽车维修" 
    }, 
    { 
        "id": 300, 
        "name": "城关汽修厂", 
        "lon": 103.664775, 
        "lat": 30.634061, 
        "type": "汽车维修" 
    }, 
    { 
        "id": 301, 
        "name": "定远汽修厂", 
        "lon": 103.517449, 
        "lat": 30.750211, 
        "type": "汽车维修" 
    }, 
    { 
        "id": 302, 
        "name": "温江诚新汽修厂", 
        "lon": 103.809618, 
        "lat": 30.64329, 
        "type": "汽车维修" 
    }, 
    { 
        "id": 303, 
        "name": "新津区津杨汽修厂", 
        "lon": 103.808967, 
        "lat": 30.424464, 
        "type": "汽车维修" 
    }, 
    { 
        "id": 304, 
        "name": "至信汽修厂", 
        "lon": 104.723547, 
        "lat": 30.631827, 
        "type": "汽车维修" 
    }, 
    { 
        "id": 305, 
        "name": "四达汽修厂", 
        "lon": 104.437764, 
        "lat": 30.8428, 
        "type": "汽车维修" 
    }, 
    { 
        "id": 306, 
        "name": "恒丰汽修厂", 
        "lon": 103.905649, 
        "lat": 30.725871, 
        "type": "汽车维修" 
    }, 
    { 
        "id": 307, 
        "name": "领豪汽修厂", 
        "lon": 104.023497, 
        "lat": 30.613048, 
        "type": "汽车维修" 
    }, 
    { 
        "id": 308, 
        "name": "都江堰市速达汽修厂", 
        "lon": 103.633565, 
        "lat": 30.983946, 
        "type": "东风特约维修" 
    }, 
    { 
        "id": 309, 
        "name": "融创汽修厂", 
        "lon": 103.964683, 
        "lat": 30.530947, 
        "type": "汽车维修" 
    }, 
    { 
        "id": 310, 
        "name": "开祥汽修厂", 
        "lon": 103.964121, 
        "lat": 30.530313, 
        "type": "汽车维修" 
    }, 
    { 
        "id": 311, 
        "name": "锦华汽修厂", 
        "lon": 103.896004, 
        "lat": 30.81923, 
        "type": "汽车维修" 
    }, 
    { 
        "id": 312, 
        "name": "郫县维嘉汽修厂", 
        "lon": 103.788741, 
        "lat": 30.876192, 
        "type": "汽车维修" 
    }, 
    { 
        "id": 313, 
        "name": "新城汽修厂", 
        "lon": 104.11873, 
        "lat": 30.950618, 
        "type": "汽车维修" 
    }, 
    { 
        "id": 314, 
        "name": "智合泰汽修厂", 
        "lon": 104.558976, 
        "lat": 30.360042, 
        "type": "汽车维修" 
    }, 
    { 
        "id": 315, 
        "name": "欣洪发汽修厂", 
        "lon": 103.508621, 
        "lat": 30.581379, 
        "type": "汽车维修" 
    }, 
    { 
        "id": 316, 
        "name": "雄州三合汽修厂", 
        "lon": 104.538242, 
        "lat": 30.401241, 
        "type": "汽车维修" 
    }, 
    { 
        "id": 317, 
        "name": "长安汽修厂", 
        "lon": 104.324467, 
        "lat": 30.860504, 
        "type": "汽车维修" 
    }, 
    { 
        "id": 318, 
        "name": "文昌汽修厂", 
        "lon": 103.480417, 
        "lat": 30.403383, 
        "type": "汽车维修" 
    }, 
    { 
        "id": 319, 
        "name": "新津诚信汽修厂(迎宾大道店)", 
        "lon": 103.805061, 
        "lat": 30.418513, 
        "type": "汽车维修" 
    }, 
    { 
        "id": 320, 
        "name": "明乐汽修厂", 
        "lon": 103.884699, 
        "lat": 30.382323, 
        "type": "汽车维修" 
    }, 
    { 
        "id": 321, 
        "name": "三江汽修厂", 
        "lon": 104.426524, 
        "lat": 30.865524, 
        "type": "汽车维修" 
    }, 
    { 
        "id": 322, 
        "name": "三江汽修厂", 
        "lon": 103.241843, 
        "lat": 30.382036, 
        "type": "汽车维修" 
    }, 
    { 
        "id": 323, 
        "name": "崇州市崇阳顺风汽修厂", 
        "lon": 103.675047, 
        "lat": 30.644827, 
        "type": "货车维修" 
    }, 
    { 
        "id": 324, 
        "name": "顺吉汽修厂", 
        "lon": 103.698867, 
        "lat": 30.403881, 
        "type": "汽车维修" 
    }, 
    { 
        "id": 325, 
        "name": "朗驰汽修厂", 
        "lon": 103.747973, 
        "lat": 30.776467, 
        "type": "汽车维修" 
    }, 
    { 
        "id": 326, 
        "name": "鑫怡汽修厂", 
        "lon": 103.773103, 
        "lat": 30.887545, 
        "type": "汽车维修" 
    }, 
    { 
        "id": 327, 
        "name": "顺发汽修厂", 
        "lon": 103.814076, 
        "lat": 30.573385, 
        "type": "汽车维修" 
    }, 
    { 
        "id": 328, 
        "name": "扬名汽修厂", 
        "lon": 104.270721, 
        "lat": 30.727167, 
        "type": "汽车维修" 
    }, 
    { 
        "id": 329, 
        "name": "百成汽修厂", 
        "lon": 104.396438, 
        "lat": 30.86444, 
        "type": "汽车维修" 
    }, 
    { 
        "id": 330, 
        "name": "郫都区顺捷汽修厂", 
        "lon": 103.933818, 
        "lat": 30.794119, 
        "type": "汽车维修" 
    }, 
    { 
        "id": 331, 
        "name": "温江阳光汽修厂", 
        "lon": 103.826363, 
        "lat": 30.705176, 
        "type": "汽车维修" 
    }, 
    { 
        "id": 332, 
        "name": "张强汽修厂", 
        "lon": 104.145895, 
        "lat": 30.803992, 
        "type": "汽车维修" 
    }, 
    { 
        "id": 333, 
        "name": "通达汽修厂", 
        "lon": 103.905927, 
        "lat": 31.001621, 
        "type": "汽车维修" 
    }, 
    { 
        "id": 334, 
        "name": "吉地汽修厂", 
        "lon": 103.705166, 
        "lat": 30.502535, 
        "type": "汽车维修" 
    }, 
    { 
        "id": 335, 
        "name": "大家汽修厂", 
        "lon": 103.483124, 
        "lat": 30.408632, 
        "type": "汽车维修" 
    }, 
    { 
        "id": 336, 
        "name": "胜利汽修厂", 
        "lon": 103.672358, 
        "lat": 30.733763, 
        "type": "汽车维修" 
    }, 
    { 
        "id": 337, 
        "name": "瑞平汽修厂", 
        "lon": 103.675798, 
        "lat": 30.644926, 
        "type": "汽车维修" 
    }, 
    { 
        "id": 338, 
        "name": "新都区繁新汽修厂", 
        "lon": 104.020269, 
        "lat": 30.862411, 
        "type": "汽车维修" 
    }, 
    { 
        "id": 339, 
        "name": "顺江汽修厂", 
        "lon": 103.799995, 
        "lat": 30.431975, 
        "type": "汽车维修" 
    }, 
    { 
        "id": 340, 
        "name": "博瑞汽修厂", 
        "lon": 103.939649, 
        "lat": 30.598421, 
        "type": "汽车维修" 
    }, 
    { 
        "id": 341, 
        "name": "瑞里汽修厂", 
        "lon": 103.647326, 
        "lat": 30.634531, 
        "type": "汽车维修" 
    }, 
    { 
        "id": 342, 
        "name": "隆翔汽修厂", 
        "lon": 103.539705, 
        "lat": 30.669685, 
        "type": "汽车维修" 
    }, 
    { 
        "id": 343, 
        "name": "万和汽修厂", 
        "lon": 103.861477, 
        "lat": 30.834091, 
        "type": "汽车维修" 
    }, 
    { 
        "id": 344, 
        "name": "兴洪汽修厂", 
        "lon": 103.655472, 
        "lat": 30.926633, 
        "type": "汽车维修" 
    }, 
    { 
        "id": 345, 
        "name": "申龙汽修厂", 
        "lon": 103.954218, 
        "lat": 31.001761, 
        "type": "汽车维修" 
    }, 
    { 
        "id": 346, 
        "name": "顺安达汽修厂", 
        "lon": 104.248361, 
        "lat": 30.55851, 
        "type": "汽车维修" 
    }, 
    { 
        "id": 347, 
        "name": "迎宾汽修厂", 
        "lon": 103.951308, 
        "lat": 30.959004, 
        "type": "汽车维修" 
    }, 
    { 
        "id": 348, 
        "name": "永泉汽修厂", 
        "lon": 103.832364, 
        "lat": 30.686677, 
        "type": "汽车维修" 
    }, 
    { 
        "id": 349, 
        "name": "兴盛汽修厂", 
        "lon": 104.430547, 
        "lat": 30.86028, 
        "type": "汽车维修" 
    }, 
    { 
        "id": 350, 
        "name": "合诚汽修厂", 
        "lon": 103.931326, 
        "lat": 30.566861, 
        "type": "汽车维修" 
    }, 
    { 
        "id": 351, 
        "name": "万和汽修厂", 
        "lon": 103.727948, 
        "lat": 30.582232, 
        "type": "汽车维修" 
    }, 
    { 
        "id": 352, 
        "name": "仁义汽修厂", 
        "lon": 103.835165, 
        "lat": 30.923936, 
        "type": "汽车维修" 
    }, 
    { 
        "id": 353, 
        "name": "祥和汽修厂", 
        "lon": 103.481573, 
        "lat": 30.408075, 
        "type": "汽车维修" 
    }, 
    { 
        "id": 354, 
        "name": "玉龙汽修厂", 
        "lon": 103.828952, 
        "lat": 30.937014, 
        "type": "汽车维修" 
    }, 
    { 
        "id": 355, 
        "name": "温江宏强汽修厂", 
        "lon": 103.797197, 
        "lat": 30.685648, 
        "type": "汽车维修" 
    }, 
    { 
        "id": 356, 
        "name": "升平汽修厂", 
        "lon": 103.676166, 
        "lat": 30.644081, 
        "type": "汽车维修" 
    }, 
    { 
        "id": 357, 
        "name": "新津鑫达汽修厂", 
        "lon": 103.80414, 
        "lat": 30.406649, 
        "type": "汽车维修" 
    }, 
    { 
        "id": 358, 
        "name": "自强汽修厂", 
        "lon": 104.089001, 
        "lat": 30.709711, 
        "type": "汽车维修" 
    }, 
    { 
        "id": 359, 
        "name": "东来龙汽修厂", 
        "lon": 104.336259, 
        "lat": 30.708874, 
        "type": "汽车维修" 
    }, 
    { 
        "id": 360, 
        "name": "港弘汽修厂", 
        "lon": 103.641805, 
        "lat": 30.254983, 
        "type": "汽车维修" 
    }, 
    { 
        "id": 361, 
        "name": "合信大众汽修厂", 
        "lon": 103.912863, 
        "lat": 30.799846, 
        "type": "汽车维修" 
    }, 
    { 
        "id": 362, 
        "name": "安仁永红汽修厂", 
        "lon": 103.638492, 
        "lat": 30.511742, 
        "type": "汽车维修" 
    }, 
    { 
        "id": 363, 
        "name": "新都区昌隆汽修厂", 
        "lon": 104.033064, 
        "lat": 30.802349, 
        "type": "汽车维修" 
    }, 
    { 
        "id": 364, 
        "name": "宏祥汽修厂", 
        "lon": 103.951789, 
        "lat": 30.998408, 
        "type": "汽车维修" 
    }, 
    { 
        "id": 365, 
        "name": "通和汽修厂", 
        "lon": 103.647975, 
        "lat": 30.634284, 
        "type": "汽车维修" 
    }, 
    { 
        "id": 366, 
        "name": "众诚汽修厂", 
        "lon": 103.676525, 
        "lat": 30.644125, 
        "type": "汽车维修" 
    }, 
    { 
        "id": 367, 
        "name": "宏光汽修厂", 
        "lon": 103.856636, 
        "lat": 30.448576, 
        "type": "汽车维修" 
    }, 
    { 
        "id": 368, 
        "name": "金东汽修厂", 
        "lon": 104.420667, 
        "lat": 30.843787, 
        "type": "汽车维修" 
    }, 
    { 
        "id": 369, 
        "name": "青白江区诚誉汽修厂", 
        "lon": 104.226159, 
        "lat": 30.884165, 
        "type": "汽车维修" 
    }, 
    { 
        "id": 370, 
        "name": "鸿强汽修厂", 
        "lon": 103.937062, 
        "lat": 31.002302, 
        "type": "汽车维修" 
    }, 
    { 
        "id": 371, 
        "name": "联众汽修厂", 
        "lon": 103.85857, 
        "lat": 30.832034, 
        "type": "汽车维修" 
    }, 
    { 
        "id": 372, 
        "name": "宏程汽修厂", 
        "lon": 103.527644, 
        "lat": 30.745834, 
        "type": "汽车维修" 
    }, 
    { 
        "id": 373, 
        "name": "建发汽修厂", 
        "lon": 104.246859, 
        "lat": 30.544385, 
        "type": "汽车维修" 
    }, 
    { 
        "id": 374, 
        "name": "远强汽修厂", 
        "lon": 103.518447, 
        "lat": 30.565027, 
        "type": "汽车维修" 
    }, 
    { 
        "id": 375, 
        "name": "王师汽修厂", 
        "lon": 103.808415, 
        "lat": 30.73782, 
        "type": "汽车维修" 
    }, 
    { 
        "id": 376, 
        "name": "周杰汽修厂", 
        "lon": 103.533525, 
        "lat": 30.735591, 
        "type": "汽车维修" 
    }, 
    { 
        "id": 377, 
        "name": "益华汽修厂", 
        "lon": 103.82961, 
        "lat": 30.703159, 
        "type": "汽车维修" 
    }, 
    { 
        "id": 378, 
        "name": "鹏程汽修厂", 
        "lon": 103.917855, 
        "lat": 30.979616, 
        "type": "汽车维修" 
    }, 
    { 
        "id": 379, 
        "name": "鹏城汽修厂", 
        "lon": 104.227705, 
        "lat": 30.884191, 
        "type": "汽车维修" 
    }, 
    { 
        "id": 380, 
        "name": "杰鑫汽修厂", 
        "lon": 103.523733, 
        "lat": 30.748946, 
        "type": "汽车维修" 
    }, 
    { 
        "id": 381, 
        "name": "顺吉汽修厂", 
        "lon": 103.67324, 
        "lat": 30.647509, 
        "type": "汽车维修" 
    }, 
    { 
        "id": 382, 
        "name": "万通汽修厂", 
        "lon": 103.52906, 
        "lat": 30.197144, 
        "type": "汽车维修" 
    }, 
    { 
        "id": 383, 
        "name": "永禾汽修厂", 
        "lon": 103.80261, 
        "lat": 30.430346, 
        "type": "汽车维修" 
    }, 
    { 
        "id": 384, 
        "name": "万里汽修厂", 
        "lon": 103.896338, 
        "lat": 30.819827, 
        "type": "汽车维修" 
    }, 
    { 
        "id": 385, 
        "name": "正发汽修厂", 
        "lon": 104.398238, 
        "lat": 30.863857, 
        "type": "汽车维修" 
    }, 
    { 
        "id": 386, 
        "name": "蓉通汽修厂", 
        "lon": 104.27642, 
        "lat": 30.577052, 
        "type": "汽车维修" 
    }, 
    { 
        "id": 387, 
        "name": "世豪汽修厂", 
        "lon": 103.672921, 
        "lat": 30.640607, 
        "type": "汽车维修" 
    }, 
    { 
        "id": 388, 
        "name": "路佳汽修厂", 
        "lon": 104.434874, 
        "lat": 30.847715, 
        "type": "汽车维修" 
    }, 
    { 
        "id": 389, 
        "name": "彭州市兴威汽修厂", 
        "lon": 103.933541, 
        "lat": 30.982489, 
        "type": "汽车维修" 
    }, 
    { 
        "id": 390, 
        "name": "华阳大众汽修厂", 
        "lon": 104.031438, 
        "lat": 30.523344, 
        "type": "汽车维修" 
    }, 
    { 
        "id": 391, 
        "name": "益祥汽修厂", 
        "lon": 103.803827, 
        "lat": 30.423947, 
        "type": "汽车维修" 
    }, 
    { 
        "id": 392, 
        "name": "顺达汽修厂", 
        "lon": 103.843859, 
        "lat": 30.771556, 
        "type": "汽车维修" 
    }, 
    { 
        "id": 393, 
        "name": "红马汽修厂", 
        "lon": 103.623374, 
        "lat": 30.924828, 
        "type": "汽车维修" 
    }, 
    { 
        "id": 394, 
        "name": "吉星汽修厂", 
        "lon": 103.757947, 
        "lat": 30.482661, 
        "type": "汽车维修" 
    }, 
    { 
        "id": 395, 
        "name": "郫都区力川汽修厂", 
        "lon": 103.900961, 
        "lat": 30.831154, 
        "type": "汽车维修" 
    }, 
    { 
        "id": 396, 
        "name": "双流顺通汽修厂", 
        "lon": 103.886975, 
        "lat": 30.568275, 
        "type": "汽车维修" 
    }, 
    { 
        "id": 397, 
        "name": "徐俊汽修厂", 
        "lon": 104.086847, 
        "lat": 30.657001, 
        "type": "汽车养护/装饰" 
    }, 
    { 
        "id": 398, 
        "name": "长河汽修厂", 
        "lon": 103.807036, 
        "lat": 30.743216, 
        "type": "汽车维修" 
    }, 
    { 
        "id": 399, 
        "name": "新津川新汽修厂", 
        "lon": 103.793051, 
        "lat": 30.415056, 
        "type": "货车维修" 
    }, 
    { 
        "id": 400, 
        "name": "爱车汽修厂", 
        "lon": 104.5389, 
        "lat": 30.400929, 
        "type": "汽车维修" 
    }, 
    { 
        "id": 401, 
        "name": "精工汽修厂", 
        "lon": 104.119062, 
        "lat": 30.616765, 
        "type": "汽车维修" 
    }, 
    { 
        "id": 402, 
        "name": "顺安通汽修厂", 
        "lon": 103.877231, 
        "lat": 30.573143, 
        "type": "汽车维修" 
    }, 
    { 
        "id": 403, 
        "name": "诚宏双龙汽修厂", 
        "lon": 104.187423, 
        "lat": 30.70027, 
        "type": "汽车维修" 
    }, 
    { 
        "id": 404, 
        "name": "鑫合盛汽修厂", 
        "lon": 104.034508, 
        "lat": 30.710241, 
        "type": "汽车维修" 
    }, 
    { 
        "id": 405, 
        "name": "捷运汽修厂", 
        "lon": 103.45768, 
        "lat": 30.476334, 
        "type": "汽车维修" 
    }, 
    { 
        "id": 406, 
        "name": "成都市新都区荣发汽修厂", 
        "lon": 104.209218, 
        "lat": 30.805144, 
        "type": "汽车维修" 
    }, 
    { 
        "id": 407, 
        "name": "新津宏田汽修厂", 
        "lon": 103.802556, 
        "lat": 30.407276, 
        "type": "汽车维修" 
    }, 
    { 
        "id": 408, 
        "name": "林翔运业青白江汽修厂", 
        "lon": 104.225848, 
        "lat": 30.897912, 
        "type": "汽车维修" 
    }, 
    { 
        "id": 409, 
        "name": "科新汽修厂", 
        "lon": 104.269614, 
        "lat": 30.728219, 
        "type": "汽车维修" 
    }, 
    { 
        "id": 410, 
        "name": "远兴汽修厂", 
        "lon": 103.444596, 
        "lat": 30.384642, 
        "type": "汽车维修" 
    }, 
    { 
        "id": 411, 
        "name": "通顺汽修厂", 
        "lon": 103.889002, 
        "lat": 31.024923, 
        "type": "汽车维修" 
    }, 
    { 
        "id": 412, 
        "name": "聚源汽修厂", 
        "lon": 104.638889, 
        "lat": 30.684795, 
        "type": "汽车维修" 
    }, 
    { 
        "id": 413, 
        "name": "众兴汽修厂", 
        "lon": 103.464516, 
        "lat": 30.452656, 
        "type": "汽车维修" 
    }, 
    { 
        "id": 414, 
        "name": "益隆汽修厂", 
        "lon": 103.806736, 
        "lat": 30.403895, 
        "type": "汽车维修" 
    }, 
    { 
        "id": 415, 
        "name": "胜达汽修厂", 
        "lon": 103.773003, 
        "lat": 30.664468, 
        "type": "汽车维修" 
    }, 
    { 
        "id": 416, 
        "name": "胜达汽修厂", 
        "lon": 103.773003, 
        "lat": 30.664468, 
        "type": "汽车维修" 
    }, 
    { 
        "id": 417, 
        "name": "博伟汽修厂", 
        "lon": 103.542496, 
        "lat": 30.579234, 
        "type": "汽车养护/装饰" 
    }, 
    { 
        "id": 418, 
        "name": "兴恒远汽修厂", 
        "lon": 103.464713, 
        "lat": 30.39516, 
        "type": "汽车维修" 
    }, 
    { 
        "id": 419, 
        "name": "鸿永汽修厂", 
        "lon": 104.446916, 
        "lat": 30.834194, 
        "type": "汽车维修" 
    }, 
    { 
        "id": 420, 
        "name": "名骏汽修厂(团位00123店)", 
        "lon": 103.967154, 
        "lat": 30.317375, 
        "type": "汽车维修" 
    }, 
    { 
        "id": 421, 
        "name": "诚信汽修厂", 
        "lon": 104.122656, 
        "lat": 30.51191, 
        "type": "汽车维修" 
    }, 
    { 
        "id": 422, 
        "name": "安德汽修厂", 
        "lon": 103.482253, 
        "lat": 30.408044, 
        "type": "汽车维修" 
    }, 
    { 
        "id": 423, 
        "name": "宏发汽修厂", 
        "lon": 103.863058, 
        "lat": 30.833792, 
        "type": "汽车维修" 
    }, 
    { 
        "id": 424, 
        "name": "双流黄甲汽修厂", 
        "lon": 103.94577, 
        "lat": 30.488332, 
        "type": "汽车维修" 
    }, 
    { 
        "id": 425, 
        "name": "星南海汽修厂", 
        "lon": 103.967274, 
        "lat": 30.80147, 
        "type": "汽车维修" 
    }, 
    { 
        "id": 426, 
        "name": "速昌汽修厂", 
        "lon": 103.595461, 
        "lat": 30.606663, 
        "type": "汽车维修" 
    }, 
    { 
        "id": 427, 
        "name": "龙泉自强汽修厂", 
        "lon": 104.269352, 
        "lat": 30.550446, 
        "type": "汽车维修" 
    }, 
    { 
        "id": 428, 
        "name": "金鑫诚汽修厂", 
        "lon": 103.965949, 
        "lat": 30.532471, 
        "type": "汽车维修" 
    }, 
    { 
        "id": 429, 
        "name": "成都市汇铭达汽修厂", 
        "lon": 104.265579, 
        "lat": 30.856403, 
        "type": "汽车维修" 
    }, 
    { 
        "id": 430, 
        "name": "鑫杰汽修厂", 
        "lon": 103.848488, 
        "lat": 30.431292, 
        "type": "汽车维修" 
    }, 
    { 
        "id": 431, 
        "name": "双流区鑫隆汽修厂", 
        "lon": 103.911913, 
        "lat": 30.497564, 
        "type": "汽车维修" 
    }, 
    { 
        "id": 432, 
        "name": "安径汽修厂(一店)", 
        "lon": 104.554986, 
        "lat": 30.373025, 
        "type": "汽车维修" 
    }, 
    { 
        "id": 433, 
        "name": "彭州市宏顺汽修厂", 
        "lon": 103.902443, 
        "lat": 30.977295, 
        "type": "汽车维修" 
    }, 
    { 
        "id": 434, 
        "name": "彭州市红波汽修厂", 
        "lon": 103.921842, 
        "lat": 30.991058, 
        "type": "汽车维修" 
    }, 
    { 
        "id": 435, 
        "name": "双流志强汽修厂", 
        "lon": 103.882591, 
        "lat": 30.582156, 
        "type": "汽车维修" 
    }, 
    { 
        "id": 436, 
        "name": "双流志强汽修厂", 
        "lon": 103.882591, 
        "lat": 30.582156, 
        "type": "汽车维修" 
    }, 
    { 
        "id": 437, 
        "name": "都江堰市东升汽修厂", 
        "lon": 103.662703, 
        "lat": 30.993364, 
        "type": "汽车维修" 
    }, 
    { 
        "id": 438, 
        "name": "大邑三坝汽修厂", 
        "lon": 103.526563, 
        "lat": 30.578477, 
        "type": "汽车维修" 
    }, 
    { 
        "id": 439, 
        "name": "温江新时代汽修厂", 
        "lon": 103.817526, 
        "lat": 30.712853, 
        "type": "汽车维修" 
    }, 
    { 
        "id": 440, 
        "name": "青白江区志文水电汽修厂", 
        "lon": 104.253546, 
        "lat": 30.858658, 
        "type": "汽车维修" 
    }, 
    { 
        "id": 441, 
        "name": "鼎诚汽修厂", 
        "lon": 104.447041, 
        "lat": 30.834193, 
        "type": "汽车维修" 
    }, 
    { 
        "id": 442, 
        "name": "家园汽修厂", 
        "lon": 103.860734, 
        "lat": 31.051858, 
        "type": "汽车维修" 
    }, 
    { 
        "id": 443, 
        "name": "尚格汽修厂", 
        "lon": 104.147903, 
        "lat": 30.800201, 
        "type": "汽车维修" 
    }, 
    { 
        "id": 444, 
        "name": "新林汽修厂", 
        "lon": 103.853413, 
        "lat": 30.442084, 
        "type": "汽车维修" 
    }, 
    { 
        "id": 445, 
        "name": "大塘汽修厂", 
        "lon": 103.369921, 
        "lat": 30.284762, 
        "type": "汽车维修" 
    }, 
    { 
        "id": 446, 
        "name": "华龙汽修厂", 
        "lon": 103.954562, 
        "lat": 30.331625, 
        "type": "汽车维修" 
    }, 
    { 
        "id": 447, 
        "name": "金山汽修厂", 
        "lon": 103.80801, 
        "lat": 30.559905, 
        "type": "汽车维修" 
    }, 
    { 
        "id": 448, 
        "name": "祖龙汽修厂", 
        "lon": 103.885286, 
        "lat": 30.582097, 
        "type": "汽车维修" 
    }, 
    { 
        "id": 449, 
        "name": "鑫越汽修厂", 
        "lon": 104.597399, 
        "lat": 30.280538, 
        "type": "汽车维修" 
    }, 
    { 
        "id": 450, 
        "name": "新都区新繁镇安平汽修厂", 
        "lon": 104.017456, 
        "lat": 30.867734, 
        "type": "汽车维修" 
    }, 
    { 
        "id": 451, 
        "name": "锦大汽修厂", 
        "lon": 103.851815, 
        "lat": 30.43939, 
        "type": "汽车维修" 
    }, 
    { 
        "id": 452, 
        "name": "车车鑫汽修厂", 
        "lon": 104.059102, 
        "lat": 30.66042, 
        "type": "汽车养护/装饰" 
    }, 
    { 
        "id": 453, 
        "name": "腾源汽修厂", 
        "lon": 103.45751, 
        "lat": 30.430443, 
        "type": "汽车维修" 
    }, 
    { 
        "id": 454, 
        "name": "腾跃汽修厂", 
        "lon": 104.265014, 
        "lat": 30.855444, 
        "type": "汽车维修" 
    }, 
    { 
        "id": 455, 
        "name": "成都兴洪鑫汽修厂", 
        "lon": 104.223895, 
        "lat": 30.546809, 
        "type": "汽车维修" 
    }, 
    { 
        "id": 456, 
        "name": "隆鑫汽修厂", 
        "lon": 103.866165, 
        "lat": 31.047371, 
        "type": "汽车维修" 
    }, 
    { 
        "id": 457, 
        "name": "郫都区东顺汽修厂", 
        "lon": 103.822608, 
        "lat": 30.931901, 
        "type": "汽车维修" 
    }, 
    { 
        "id": 458, 
        "name": "龙泉驿区洪友汽修厂", 
        "lon": 104.338857, 
        "lat": 30.667313, 
        "type": "汽车维修" 
    }, 
    { 
        "id": 459, 
        "name": "新东泰汽修厂", 
        "lon": 103.669482, 
        "lat": 30.645438, 
        "type": "汽车维修" 
    }, 
    { 
        "id": 460, 
        "name": "大邑县新泰全汽修厂", 
        "lon": 103.576771, 
        "lat": 30.523356, 
        "type": "汽车维修" 
    }, 
    { 
        "id": 461, 
        "name": "彭州市蓉达汽修厂", 
        "lon": 103.954043, 
        "lat": 31.002804, 
        "type": "汽车维修" 
    }, 
    { 
        "id": 462, 
        "name": "成都富诚汽修厂", 
        "lon": 103.969563, 
        "lat": 30.613424, 
        "type": "汽车维修" 
    }, 
    { 
        "id": 463, 
        "name": "成都市金牛区川宏汽修厂", 
        "lon": 104.078015, 
        "lat": 30.684446, 
        "type": "汽车维修" 
    }, 
    { 
        "id": 464, 
        "name": "郫都区荣盛汽修厂", 
        "lon": 103.895152, 
        "lat": 30.817672, 
        "type": "汽车维修" 
    }, 
    { 
        "id": 465, 
        "name": "凯睿汽修厂", 
        "lon": 104.433216, 
        "lat": 30.847057, 
        "type": "汽车维修" 
    }, 
    { 
        "id": 466, 
        "name": "兴胜汽修厂", 
        "lon": 104.597364, 
        "lat": 30.280621, 
        "type": "汽车维修" 
    }, 
    { 
        "id": 467, 
        "name": "鸿川汽修厂", 
        "lon": 103.9082, 
        "lat": 30.542008, 
        "type": "汽车维修" 
    }, 
    { 
        "id": 468, 
        "name": "津瑞汽修厂", 
        "lon": 103.874964, 
        "lat": 30.829469, 
        "type": "汽车维修" 
    }, 
    { 
        "id": 469, 
        "name": "长远汽修厂", 
        "lon": 104.22706, 
        "lat": 30.834494, 
        "type": "汽车养护/装饰" 
    }, 
    { 
        "id": 470, 
        "name": "华瑞汽修厂", 
        "lon": 103.839987, 
        "lat": 30.758102, 
        "type": "汽车维修" 
    }, 
    { 
        "id": 471, 
        "name": "锦星汽修厂", 
        "lon": 103.859598, 
        "lat": 30.835649, 
        "type": "汽车维修" 
    }, 
    { 
        "id": 472, 
        "name": "东升汽修厂", 
        "lon": 103.920049, 
        "lat": 30.991528, 
        "type": "汽车维修" 
    }, 
    { 
        "id": 473, 
        "name": "鑫晟平汽修厂", 
        "lon": 104.537392, 
        "lat": 30.706756, 
        "type": "汽车维修" 
    }, 
    { 
        "id": 474, 
        "name": "兴杭汽修厂", 
        "lon": 103.995022, 
        "lat": 30.480414, 
        "type": "汽车维修" 
    }, 
    { 
        "id": 475, 
        "name": "金鑫龙汽修厂", 
        "lon": 104.051854, 
        "lat": 30.733196, 
        "type": "汽车维修" 
    }, 
    { 
        "id": 476, 
        "name": "新繁宏达汽修厂", 
        "lon": 103.999724, 
        "lat": 30.888113, 
        "type": "汽车维修" 
    }, 
    { 
        "id": 477, 
        "name": "安途汽修厂(学府西路南七街)", 
        "lon": 103.983189, 
        "lat": 30.574942, 
        "type": "汽车维修" 
    }, 
    { 
        "id": 478, 
        "name": "文昌临邛玉新汽修厂", 
        "lon": 103.480353, 
        "lat": 30.403341, 
        "type": "汽车维修" 
    }, 
    { 
        "id": 479, 
        "name": "世达汽修厂", 
        "lon": 103.795461, 
        "lat": 30.87374, 
        "type": "东风特约维修" 
    }, 
    { 
        "id": 480, 
        "name": "恒信汽修厂", 
        "lon": 104.617605, 
        "lat": 30.390845, 
        "type": "汽车维修" 
    }, 
    { 
        "id": 481, 
        "name": "顺风汽修厂", 
        "lon": 103.901941, 
        "lat": 30.833011, 
        "type": "汽车维修" 
    }, 
    { 
        "id": 482, 
        "name": "金堂县双玉汽修厂", 
        "lon": 104.411601, 
        "lat": 30.843564, 
        "type": "长安汽车维修" 
    }, 
    { 
        "id": 483, 
        "name": "众鑫达汽修厂", 
        "lon": 103.872734, 
        "lat": 30.653334, 
        "type": "汽车维修" 
    }, 
    { 
        "id": 484, 
        "name": "联合汽修厂", 
        "lon": 104.113055, 
        "lat": 30.940445, 
        "type": "汽车维修" 
    }, 
    { 
        "id": 485, 
        "name": "彭州市四达汽车汽修厂", 
        "lon": 104.10819, 
        "lat": 30.961607, 
        "type": "汽车维修" 
    }, 
    { 
        "id": 486, 
        "name": "都江堰市石羊小金汽修厂", 
        "lon": 103.640693, 
        "lat": 30.858028, 
        "type": "汽车维修" 
    }, 
    { 
        "id": 487, 
        "name": "晋豪汽修厂", 
        "lon": 103.803112, 
        "lat": 30.405014, 
        "type": "汽车维修" 
    }, 
    { 
        "id": 488, 
        "name": "金辉汽修厂", 
        "lon": 103.473465, 
        "lat": 30.431236, 
        "type": "汽车维修" 
    }, 
    { 
        "id": 489, 
        "name": "昌浩汽修厂", 
        "lon": 104.54382, 
        "lat": 30.706544, 
        "type": "汽车维修" 
    }, 
    { 
        "id": 490, 
        "name": "隆兴汽修厂", 
        "lon": 103.67161, 
        "lat": 30.647791, 
        "type": "汽车维修" 
    }, 
    { 
        "id": 491, 
        "name": "小杨汽修厂", 
        "lon": 103.474748, 
        "lat": 30.515972, 
        "type": "汽车维修" 
    }, 
    { 
        "id": 492, 
        "name": "温江鑫瑞汽修厂", 
        "lon": 103.824252, 
        "lat": 30.709467, 
        "type": "汽车维修" 
    }, 
    { 
        "id": 493, 
        "name": "腾飞汽修厂", 
        "lon": 103.911674, 
        "lat": 30.856832, 
        "type": "汽车维修" 
    }, 
    { 
        "id": 494, 
        "name": "崃市可欣汽修厂", 
        "lon": 103.578244, 
        "lat": 30.391891, 
        "type": "汽车维修" 
    }, 
    { 
        "id": 495, 
        "name": "西郊顺全汽修厂", 
        "lon": 103.935558, 
        "lat": 30.97664, 
        "type": "汽车维修" 
    }, 
    { 
        "id": 496, 
        "name": "海霸王西部食品物流园区(海霸王路)", 
        "lon": 104.024227, 
        "lat": 30.749223, 
        "type": "物流速递" 
    }, 
    { 
        "id": 497, 
        "name": "龙地成都新津物流园", 
        "lon": 103.914929, 
        "lat": 30.372161, 
        "type": "物流速递" 
    }, 
    { 
        "id": 498, 
        "name": "顺邦物流园区", 
        "lon": 104.216508, 
        "lat": 30.891545, 
        "type": "物流速递" 
    }, 
    { 
        "id": 499, 
        "name": "普洛斯龙泉驿物流园", 
        "lon": 104.19305, 
        "lat": 30.532953, 
        "type": "物流速递" 
    }, 
    { 
        "id": 500, 
        "name": "嘉里物流(经开区南五路店)", 
        "lon": 104.193066, 
        "lat": 30.531384, 
        "type": "物流速递" 
    }, 
    { 
        "id": 501, 
        "name": "万纬成都龙泉物流园", 
        "lon": 104.18971, 
        "lat": 30.519415, 
        "type": "生活服务场所" 
    }, 
    { 
        "id": 502, 
        "name": "普洛斯新都物流园(中集大道)", 
        "lon": 104.125375, 
        "lat": 30.802426, 
        "type": "物流速递" 
    }, 
    { 
        "id": 503, 
        "name": "成都(新都)宝湾物流园", 
        "lon": 104.136178, 
        "lat": 30.799398, 
        "type": "物流速递" 
    }, 
    { 
        "id": 504, 
        "name": "京东智能产业园", 
        "lon": 104.116728, 
        "lat": 30.803408, 
        "type": "物流速递" 
    }, 
    { 
        "id": 505, 
        "name": "伟津物流园区", 
        "lon": 103.917548, 
        "lat": 30.395126, 
        "type": "物流速递" 
    }, 
    { 
        "id": 506, 
        "name": "万纬成都双流空港物流园", 
        "lon": 103.963287, 
        "lat": 30.556416, 
        "type": "物流速递" 
    }, 
    { 
        "id": 507, 
        "name": "万纬成都天府物流园", 
        "lon": 104.173423, 
        "lat": 30.524895, 
        "type": "物流速递" 
    }, 
    { 
        "id": 508, 
        "name": "普洛斯天府机场物流园", 
        "lon": 104.450684, 
        "lat": 30.356163, 
        "type": "物流速递" 
    }, 
    { 
        "id": 509, 
        "name": "上达物流园区", 
        "lon": 104.124418, 
        "lat": 30.798977, 
        "type": "物流速递" 
    }, 
    { 
        "id": 510, 
        "name": "海纳百川物流园", 
        "lon": 103.922603, 
        "lat": 30.643297, 
        "type": "物流速递" 
    }, 
    { 
        "id": 511, 
        "name": "沙西物流园", 
        "lon": 104.019451, 
        "lat": 30.751513, 
        "type": "物流速递" 
    }, 
    { 
        "id": 512, 
        "name": "宇培成都青白江物流园", 
        "lon": 104.242601, 
        "lat": 30.814644, 
        "type": "物流速递" 
    }, 
    { 
        "id": 513, 
        "name": "普洛斯新津物流园", 
        "lon": 103.909275, 
        "lat": 30.374053, 
        "type": "物流速递" 
    }, 
    { 
        "id": 514, 
        "name": "京东亚洲一号成都天府智能物流园3期", 
        "lon": 104.172081, 
        "lat": 30.532582, 
        "type": "物流速递" 
    }, 
    { 
        "id": 515, 
        "name": "京东亚洲一号成都天府物流园(一期)", 
        "lon": 104.171203, 
        "lat": 30.526949, 
        "type": "物流速递" 
    }, 
    { 
        "id": 516, 
        "name": "普洛斯双流物流园", 
        "lon": 103.96951, 
        "lat": 30.458121, 
        "type": "物流速递" 
    }, 
    { 
        "id": 517, 
        "name": "传胜供应链成都物流园", 
        "lon": 103.725004, 
        "lat": 30.604441, 
        "type": "公司" 
    }, 
    { 
        "id": 518, 
        "name": "成都通祥福明物流有限公司", 
        "lon": 104.125218, 
        "lat": 30.800675, 
        "type": "物流速递" 
    }, 
    { 
        "id": 519, 
        "name": "四川航空天府机场物流园", 
        "lon": 104.444847, 
        "lat": 30.325014, 
        "type": "物流速递" 
    }, 
    { 
        "id": 520, 
        "name": "普洛斯成都高新区工业物流园", 
        "lon": 103.915489, 
        "lat": 30.790339, 
        "type": "物流速递" 
    }, 
    { 
        "id": 521, 
        "name": "普洛斯崇州物流园", 
        "lon": 103.711044, 
        "lat": 30.599485, 
        "type": "物流速递" 
    }, 
    { 
        "id": 522, 
        "name": "苏宁成都青白江物流园", 
        "lon": 104.248566, 
        "lat": 30.821046, 
        "type": "物流速递" 
    }, 
    { 
        "id": 523, 
        "name": "神州数码物流园", 
        "lon": 103.974957, 
        "lat": 30.546218, 
        "type": "物流速递" 
    }, 
    { 
        "id": 524, 
        "name": "平安成都龙泉驿物流园1期", 
        "lon": 104.192444, 
        "lat": 30.522811, 
        "type": "物流速递" 
    }, 
    { 
        "id": 525, 
        "name": "成都青白江宝湾物流园", 
        "lon": 104.328156, 
        "lat": 30.841527, 
        "type": "物流速递" 
    }, 
    { 
        "id": 526, 
        "name": "平安成都龙泉驿物流园二期", 
        "lon": 104.201794, 
        "lat": 30.51955, 
        "type": "物流速递" 
    }, 
    { 
        "id": 527, 
        "name": "顺丰速运(新津中转场)", 
        "lon": 103.915089, 
        "lat": 30.372192, 
        "type": "物流速递" 
    }, 
    { 
        "id": 528, 
        "name": "凯力客物流园区", 
        "lon": 104.122247, 
        "lat": 30.792942, 
        "type": "物流速递" 
    }, 
    { 
        "id": 529, 
        "name": "汇津物流园", 
        "lon": 103.899243, 
        "lat": 30.397919, 
        "type": "物流速递" 
    }, 
    { 
        "id": 530, 
        "name": "九江线缆公司美河物流园", 
        "lon": 103.917407, 
        "lat": 30.636476, 
        "type": "物流速递" 
    }, 
    { 
        "id": 531, 
        "name": "蓝翔物流园服务中心", 
        "lon": 104.121036, 
        "lat": 30.803809, 
        "type": "物流速递" 
    }, 
    { 
        "id": 532, 
        "name": "洪诚物流园", 
        "lon": 104.144013, 
        "lat": 30.829765, 
        "type": "物流速递" 
    }, 
    { 
        "id": 533, 
        "name": "丰树成都青白江物流园", 
        "lon": 104.21465, 
        "lat": 30.867169, 
        "type": "物流速递" 
    }, 
    { 
        "id": 534, 
        "name": "宏伟物流(双流金太阳长征物流园)", 
        "lon": 103.938367, 
        "lat": 30.620166, 
        "type": "物流速递" 
    }, 
    { 
        "id": 535, 
        "name": "丰树成都青白江物流园(一期)", 
        "lon": 104.213522, 
        "lat": 30.86469, 
        "type": "生活服务场所" 
    }, 
    { 
        "id": 536, 
        "name": "成都长虹民生物流有限公司", 
        "lon": 104.194688, 
        "lat": 30.525095, 
        "type": "物流速递" 
    }, 
    { 
        "id": 537, 
        "name": "古柏物流园", 
        "lon": 104.050216, 
        "lat": 30.746636, 
        "type": "物流速递" 
    }, 
    { 
        "id": 538, 
        "name": "万和物流园", 
        "lon": 103.783149, 
        "lat": 30.475496, 
        "type": "物流速递" 
    }, 
    { 
        "id": 539, 
        "name": "四川物流航空港有限公司", 
        "lon": 103.963598, 
        "lat": 30.548761, 
        "type": "物流速递" 
    }, 
    { 
        "id": 540, 
        "name": "中国外运成都青白江物流园区", 
        "lon": 104.271234, 
        "lat": 30.822146, 
        "type": "物流速递" 
    }, 
    { 
        "id": 541, 
        "name": "成都传化智慧物流港B区", 
        "lon": 104.239112, 
        "lat": 30.84922, 
        "type": "物流速递" 
    }, 
    { 
        "id": 542, 
        "name": "仁禾物流(三国站)", 
        "lon": 104.213503, 
        "lat": 30.862716, 
        "type": "物流速递" 
    }, 
    { 
        "id": 543, 
        "name": "成诺物流", 
        "lon": 104.117835, 
        "lat": 30.796765, 
        "type": "物流速递" 
    }, 
    { 
        "id": 544, 
        "name": "成都传化智慧物流港A区", 
        "lon": 104.233833, 
        "lat": 30.851406, 
        "type": "物流速递" 
    }, 
    { 
        "id": 545, 
        "name": "普洛斯成都龙泉经开物流园", 
        "lon": 104.182469, 
        "lat": 30.555427, 
        "type": "物流速递" 
    }, 
    { 
        "id": 546, 
        "name": "铁路货运城厢物流中心", 
        "lon": 104.318167, 
        "lat": 30.840678, 
        "type": "物流速递" 
    }, 
    { 
        "id": 547, 
        "name": "安能物流成都分拨中心", 
        "lon": 104.177436, 
        "lat": 30.527467, 
        "type": "物流速递" 
    }, 
    { 
        "id": 548, 
        "name": "四川川航物流有限公司", 
        "lon": 103.963397, 
        "lat": 30.590728, 
        "type": "物流速递" 
    }, 
    { 
        "id": 549, 
        "name": "民熙民商青白江现代金融物流园", 
        "lon": 104.272473, 
        "lat": 30.823949, 
        "type": "物流速递" 
    }, 
    { 
        "id": 550, 
        "name": "宝供成都物流基地", 
        "lon": 103.802903, 
        "lat": 30.65992, 
        "type": "物流速递" 
    }, 
    { 
        "id": 551, 
        "name": "成都新都物流园京东物流", 
        "lon": 104.117822, 
        "lat": 30.805804, 
        "type": "物流速递" 
    }, 
    { 
        "id": 552, 
        "name": "成都八达远野物流", 
        "lon": 104.122947, 
        "lat": 30.794267, 
        "type": "物流速递" 
    }, 
    { 
        "id": 553, 
        "name": "成都市兴跃物流配送中心", 
        "lon": 104.125965, 
        "lat": 30.798339, 
        "type": "物流速递" 
    }, 
    { 
        "id": 554, 
        "name": "三河物流园", 
        "lon": 104.009668, 
        "lat": 30.589936, 
        "type": "家居建材市场" 
    }, 
    { 
        "id": 555, 
        "name": "三朋四友物流园", 
        "lon": 103.931912, 
        "lat": 30.643389, 
        "type": "物流速递" 
    }, 
    { 
        "id": 556, 
        "name": "丰树青白江物流中心(二期)", 
        "lon": 104.215213, 
        "lat": 30.868388, 
        "type": "物流速递" 
    }, 
    { 
        "id": 557, 
        "name": "阔展物流", 
        "lon": 104.002127, 
        "lat": 30.506472, 
        "type": "物流速递" 
    }, 
    { 
        "id": 558, 
        "name": "成都云钢联物流有限公司", 
        "lon": 104.257293, 
        "lat": 30.845833, 
        "type": "物流速递" 
    }, 
    { 
        "id": 559, 
        "name": "纵达物流", 
        "lon": 104.249192, 
        "lat": 30.822788, 
        "type": "物流速递" 
    }, 
    { 
        "id": 560, 
        "name": "川建物流园", 
        "lon": 104.049663, 
        "lat": 30.734048, 
        "type": "物流速递" 
    }, 
    { 
        "id": 561, 
        "name": "顺邦物流分拨中心", 
        "lon": 104.216453, 
        "lat": 30.892047, 
        "type": "物流速递" 
    }, 
    { 
        "id": 562, 
        "name": "安博中国(成都龙泉物流中心)", 
        "lon": 104.193967, 
        "lat": 30.516573, 
        "type": "物流速递" 
    }, 
    { 
        "id": 563, 
        "name": "民生物流四川有限公司", 
        "lon": 104.199186, 
        "lat": 30.528606, 
        "type": "物流速递" 
    }, 
    { 
        "id": 564, 
        "name": "成都中储发展物流有限责任公司", 
        "lon": 103.970531, 
        "lat": 30.547011, 
        "type": "物流速递" 
    }, 
    { 
        "id": 565, 
        "name": "传化公路港物流有限公司", 
        "lon": 104.133071, 
        "lat": 30.794768, 
        "type": "公司" 
    }, 
    { 
        "id": 566, 
        "name": "鸿发物流园", 
        "lon": 103.881675, 
        "lat": 30.496557, 
        "type": "物流速递" 
    }, 
    { 
        "id": 567, 
        "name": "杨公物流园", 
        "lon": 103.834736, 
        "lat": 30.502194, 
        "type": "物流速递" 
    }, 
    { 
        "id": 568, 
        "name": "润宝物流", 
        "lon": 104.119741, 
        "lat": 30.793708, 
        "type": "公司" 
    }, 
    { 
        "id": 569, 
        "name": "鑫慧鑫物流园", 
        "lon": 104.048809, 
        "lat": 30.747834, 
        "type": "物流速递" 
    }, 
    { 
        "id": 570, 
        "name": "海都物流", 
        "lon": 104.118748, 
        "lat": 30.798826, 
        "type": "物流速递" 
    }, 
    { 
        "id": 571, 
        "name": "新杰物流(物流大道店)", 
        "lon": 103.972215, 
        "lat": 30.554998, 
        "type": "物流速递" 
    }, 
    { 
        "id": 572, 
        "name": "嘉民物流园区", 
        "lon": 104.114525, 
        "lat": 30.800725, 
        "type": "物流速递" 
    }, 
    { 
        "id": 573, 
        "name": "富田仓储物流市场", 
        "lon": 104.150551, 
        "lat": 30.834935, 
        "type": "物流速递" 
    }, 
    { 
        "id": 574, 
        "name": "巴蜀物流", 
        "lon": 104.177203, 
        "lat": 30.534749, 
        "type": "公司" 
    }, 
    { 
        "id": 575, 
        "name": "粤蓉集团龙泉冷链物流园", 
        "lon": 104.225131, 
        "lat": 30.536075, 
        "type": "公司" 
    }, 
    { 
        "id": 576, 
        "name": "泰宜鑫储运中心", 
        "lon": 103.97591, 
        "lat": 30.541188, 
        "type": "物流速递" 
    }, 
    { 
        "id": 577, 
        "name": "平安不动产成都新地物流园", 
        "lon": 103.973934, 
        "lat": 30.55918, 
        "type": "物流速递" 
    }, 
    { 
        "id": 578, 
        "name": "佳吉快运(物流大道)", 
        "lon": 104.135449, 
        "lat": 30.796074, 
        "type": "物流速递" 
    }, 
    { 
        "id": 579, 
        "name": "升峰物流", 
        "lon": 104.123865, 
        "lat": 30.792195, 
        "type": "物流速递" 
    }, 
    { 
        "id": 580, 
        "name": "成都万江物流有限公司", 
        "lon": 104.12505, 
        "lat": 30.522837, 
        "type": "物流速递" 
    }, 
    { 
        "id": 581, 
        "name": "顺丰丰泰产业园.成都天府(四川顺丰物流园)", 
        "lon": 104.437427, 
        "lat": 30.353565, 
        "type": "物流速递" 
    }, 
    { 
        "id": 582, 
        "name": "川陕货运市场", 
        "lon": 104.211433, 
        "lat": 30.860412, 
        "type": "物流速递" 
    }, 
    { 
        "id": 583, 
        "name": "文汉物流", 
        "lon": 104.329095, 
        "lat": 30.83984, 
        "type": "物流速递" 
    }, 
    { 
        "id": 584, 
        "name": "成都青白江瀚溥物流园京东物流", 
        "lon": 104.211873, 
        "lat": 30.868477, 
        "type": "物流速递" 
    }, 
    { 
        "id": 585, 
        "name": "云港物流园(新港)", 
        "lon": 103.920476, 
        "lat": 30.38136, 
        "type": "生活服务场所" 
    }, 
    { 
        "id": 586, 
        "name": "建顺成物流园", 
        "lon": 103.868229, 
        "lat": 30.641279, 
        "type": "物流速递" 
    }, 
    { 
        "id": 587, 
        "name": "成都市金牛区博才物流园", 
        "lon": 104.06396, 
        "lat": 30.741134, 
        "type": "物流速递" 
    }, 
    { 
        "id": 588, 
        "name": "成都青白江象道物流有限公司", 
        "lon": 104.313506, 
        "lat": 30.84406, 
        "type": "物流速递" 
    }, 
    { 
        "id": 589, 
        "name": "四川路威特物流有限公司", 
        "lon": 104.271062, 
        "lat": 30.831359, 
        "type": "物流速递" 
    }, 
    { 
        "id": 590, 
        "name": "成都三志物流有限公司", 
        "lon": 104.131733, 
        "lat": 30.795926, 
        "type": "物流速递" 
    }, 
    { 
        "id": 591, 
        "name": "新地物流(通关路)", 
        "lon": 103.977374, 
        "lat": 30.55327, 
        "type": "物流速递" 
    }, 
    { 
        "id": 592, 
        "name": "崇新物流园", 
        "lon": 103.793904, 
        "lat": 30.529003, 
        "type": "物流速递" 
    }, 
    { 
        "id": 593, 
        "name": "成都川西物流有限公司", 
        "lon": 104.050261, 
        "lat": 30.749999, 
        "type": "物流速递" 
    }, 
    { 
        "id": 594, 
        "name": "深国际成都青白江综合物流港", 
        "lon": 104.26731, 
        "lat": 30.842163, 
        "type": "物流速递" 
    }, 
    { 
        "id": 595, 
        "name": "崇新物流园", 
        "lon": 103.793904, 
        "lat": 30.529003, 
        "type": "物流速递" 
    }, 
    { 
        "id": 596, 
        "name": "崇新物流园", 
        "lon": 103.793904, 
        "lat": 30.529003, 
        "type": "物流速递" 
    }, 
    { 
        "id": 597, 
        "name": "成都川西物流有限公司", 
        "lon": 104.050261, 
        "lat": 30.749999, 
        "type": "物流速递" 
    }, 
    { 
        "id": 598, 
        "name": "深国际成都青白江综合物流港", 
        "lon": 104.26731, 
        "lat": 30.842163, 
        "type": "物流速递" 
    }, 
    { 
        "id": 599, 
        "name": "四川省烟草公司成都市公司物流中心", 
        "lon": 104.163639, 
        "lat": 30.684497, 
        "type": "物流速递" 
    }, 
    { 
        "id": 600, 
        "name": "佛山市亿航物流成都货仓", 
        "lon": 103.900488, 
        "lat": 30.659414, 
        "type": "物流速递" 
    }, 
    { 
        "id": 601, 
        "name": "力展物流(青白江运营中心)", 
        "lon": 104.245766, 
        "lat": 30.847733, 
        "type": "物流速递" 
    }, 
    { 
        "id": 602, 
        "name": "远洋物流", 
        "lon": 104.250057, 
        "lat": 30.848966, 
        "type": "物流速递" 
    }, 
    { 
        "id": 603, 
        "name": "柑梓树宏兴源物流仓储中心", 
        "lon": 103.86636, 
        "lat": 30.6445, 
        "type": "物流速递" 
    }, 
    { 
        "id": 604, 
        "name": "四川文传物流有限公司", 
        "lon": 104.297465, 
        "lat": 30.844171, 
        "type": "物流速递" 
    }, 
    { 
        "id": 605, 
        "name": "顺邦物流公路港2期", 
        "lon": 104.222272, 
        "lat": 30.891258, 
        "type": "物流速递" 
    }, 
    { 
        "id": 606, 
        "name": "中铁快运(成都东站营业部)", 
        "lon": 104.138529, 
        "lat": 30.626515, 
        "type": "物流速递" 
    }, 
    { 
        "id": 607, 
        "name": "成都天天百运物流分拨中心", 
        "lon": 104.139003, 
        "lat": 30.812985, 
        "type": "物流速递" 
    }, 
    { 
        "id": 608, 
        "name": "湘北物流园", 
        "lon": 103.818303, 
        "lat": 30.576453, 
        "type": "物流速递" 
    }, 
    { 
        "id": 609, 
        "name": "海霸王西部食品物流园", 
        "lon": 104.022874, 
        "lat": 30.751899, 
        "type": "物流速递" 
    }, 
    { 
        "id": 610, 
        "name": "力展物流(龙泉配送部)", 
        "lon": 104.248399, 
        "lat": 30.555022, 
        "type": "物流速递" 
    }, 
    { 
        "id": 611, 
        "name": "迈诺物流", 
        "lon": 104.131963, 
        "lat": 30.799821, 
        "type": "物流速递" 
    }, 
    { 
        "id": 612, 
        "name": "泰能物流园", 
        "lon": 104.240255, 
        "lat": 30.817337, 
        "type": "物流速递" 
    }, 
    { 
        "id": 613, 
        "name": "东百集团成都新津物流中心", 
        "lon": 103.915675, 
        "lat": 30.373248, 
        "type": "物流速递" 
    }, 
    { 
        "id": 614, 
        "name": "荣庆物流(成都分公司)", 
        "lon": 104.122391, 
        "lat": 30.80284, 
        "type": "物流速递" 
    }, 
    { 
        "id": 615, 
        "name": "力展物流(供应链)", 
        "lon": 104.251452, 
        "lat": 30.84869, 
        "type": "物流速递" 
    }, 
    { 
        "id": 616, 
        "name": "平安一期物流园1号库", 
        "lon": 104.192403, 
        "lat": 30.522858, 
        "type": "物流速递" 
    }, 
    { 
        "id": 617, 
        "name": "蓉康物流", 
        "lon": 104.123951, 
        "lat": 30.799056, 
        "type": "物流速递" 
    }, 
    { 
        "id": 618, 
        "name": "韵天物流", 
        "lon": 104.1915, 
        "lat": 30.861202, 
        "type": "物流速递" 
    }, 
    { 
        "id": 619, 
        "name": "三国物流园7栋", 
        "lon": 104.212475, 
        "lat": 30.862475, 
        "type": "物流速递" 
    }, 
    { 
        "id": 620, 
        "name": "鑫艺佳物流园", 
        "lon": 104.150827, 
        "lat": 30.831002, 
        "type": "物流速递" 
    }, 
    { 
        "id": 621, 
        "name": "成拉物流", 
        "lon": 104.128381, 
        "lat": 30.800961, 
        "type": "物流速递" 
    }, 
    { 
        "id": 622, 
        "name": "巨邦物流有限公司", 
        "lon": 104.118619, 
        "lat": 30.795779, 
        "type": "物流速递" 
    }, 
    { 
        "id": 623, 
        "name": "普罗斯物流园区乐峰网", 
        "lon": 103.917073, 
        "lat": 30.791389, 
        "type": "公司" 
    }, 
    { 
        "id": 624, 
        "name": "保快捷物流总部", 
        "lon": 104.07532, 
        "lat": 30.821173, 
        "type": "物流速递" 
    }, 
    { 
        "id": 625, 
        "name": "成都景豪(精越)物流有限公司新都公司", 
        "lon": 104.144886, 
        "lat": 30.837844, 
        "type": "物流速递" 
    }, 
    { 
        "id": 626, 
        "name": "力展物流(雁鹅中路)", 
        "lon": 103.91887, 
        "lat": 30.623466, 
        "type": "物流速递" 
    }, 
    { 
        "id": 627, 
        "name": "建国货运(三国物流园)", 
        "lon": 104.212048, 
        "lat": 30.862872, 
        "type": "物流速递" 
    }, 
    { 
        "id": 628, 
        "name": "力展物流(崇州配送中心)", 
        "lon": 103.69156, 
        "lat": 30.641564, 
        "type": "物流速递" 
    }, 
    { 
        "id": 629, 
        "name": "中铁八局集团现代物流有限公司", 
        "lon": 104.30907, 
        "lat": 30.841498, 
        "type": "物流速递" 
    }, 
    { 
        "id": 630, 
        "name": "科捷物流", 
        "lon": 103.969464, 
        "lat": 30.458074, 
        "type": "物流速递" 
    }, 
    { 
        "id": 631, 
        "name": "城厢国际集装箱物流园", 
        "lon": 104.319766, 
        "lat": 30.832963, 
        "type": "物流速递" 
    }, 
    { 
        "id": 632, 
        "name": "中国物流公司成都青白江物流中心", 
        "lon": 104.315964, 
        "lat": 30.842049, 
        "type": "物流速递" 
    }, 
    { 
        "id": 633, 
        "name": "力展物流(新都配送收货中心)", 
        "lon": 104.147424, 
        "lat": 30.829762, 
        "type": "物流速递" 
    }, 
    { 
        "id": 634, 
        "name": "力展物流(郫县配送中心)", 
        "lon": 103.890346, 
        "lat": 30.819377, 
        "type": "物流速递" 
    }, 
    { 
        "id": 635, 
        "name": "力展物流(兴跃物流园区)", 
        "lon": 104.125408, 
        "lat": 30.799158, 
        "type": "物流速递" 
    }, 
    { 
        "id": 636, 
        "name": "力展物流(兴跃物流园区)", 
        "lon": 104.125408, 
        "lat": 30.799158, 
        "type": "物流速递" 
    }, 
    { 
        "id": 637, 
        "name": "彭氏雄风物流", 
        "lon": 104.077404, 
        "lat": 30.82798, 
        "type": "物流速递" 
    }, 
    { 
        "id": 638, 
        "name": "川桂快运广西海南全直达", 
        "lon": 104.125425, 
        "lat": 30.800575, 
        "type": "物流速递" 
    }, 
    { 
        "id": 639, 
        "name": "盛辉物流(凯力客物流园区店)", 
        "lon": 104.12185, 
        "lat": 30.793264, 
        "type": "物流速递" 
    }, 
    { 
        "id": 640, 
        "name": "成都蚂蚁物流有限公司物流园区“司机之家”暖新驿站", 
        "lon": 104.031746, 
        "lat": 30.613445, 
        "type": "物流速递" 
    }, 
    { 
        "id": 641, 
        "name": "力展物流(华阳配送中心)", 
        "lon": 104.029154, 
        "lat": 30.516058, 
        "type": "物流速递" 
    }, 
    { 
        "id": 642, 
        "name": "海霸王西部食品物流园区肉品区", 
        "lon": 104.021975, 
        "lat": 30.751738, 
        "type": "物流速递" 
    }, 
    { 
        "id": 643, 
        "name": "四川物流集装箱堆场", 
        "lon": 104.310335, 
        "lat": 30.843633, 
        "type": "公司" 
    }, 
    { 
        "id": 644, 
        "name": "钰兴物流园", 
        "lon": 103.925159, 
        "lat": 30.623225, 
        "type": "物流速递" 
    }, 
    { 
        "id": 645, 
        "name": "成都金龙达物业有限公司物流园", 
        "lon": 104.218457, 
        "lat": 30.576764, 
        "type": "物流速递" 
    }, 
    { 
        "id": 646, 
        "name": "杰缘物流有限公司", 
        "lon": 104.124598, 
        "lat": 30.800819, 
        "type": "生活服务场所" 
    }, 
    { 
        "id": 647, 
        "name": "成都吉仕达物流有限公司", 
        "lon": 104.122393, 
        "lat": 30.793021, 
        "type": "物流速递" 
    }, 
    { 
        "id": 648, 
        "name": "中国邮政青白江区寄递物流园", 
        "lon": 104.258464, 
        "lat": 30.857794, 
        "type": "物流速递" 
    }, 
    { 
        "id": 649, 
        "name": "豪翔物流(运力大道店)", 
        "lon": 104.152382, 
        "lat": 30.831864, 
        "type": "生活服务场所" 
    }, 
    { 
        "id": 650, 
        "name": "升峰物流园119号恒鸿物流寄顺丰", 
        "lon": 104.12362, 
        "lat": 30.793015, 
        "type": "物流速递" 
    }, 
    { 
        "id": 651, 
        "name": "奥特乐龙泉配送中心", 
        "lon": 104.193522, 
        "lat": 30.52102, 
        "type": "生活服务场所" 
    }, 
    { 
        "id": 652, 
        "name": "成都正远物流", 
        "lon": 104.15034, 
        "lat": 30.842036, 
        "type": "物流速递" 
    }, 
    { 
        "id": 653, 
        "name": "龙宇物流", 
        "lon": 104.135517, 
        "lat": 30.797329, 
        "type": "物流速递" 
    }, 
    { 
        "id": 654, 
        "name": "鹏展物流园", 
        "lon": 103.956124, 
        "lat": 30.635513, 
        "type": "物流速递" 
    }, 
    { 
        "id": 655, 
        "name": "成都一路达物流有限公司", 
        "lon": 104.123179, 
        "lat": 30.79408, 
        "type": "物流速递" 
    }, 
    { 
        "id": 656, 
        "name": "成都三宇物流园区", 
        "lon": 104.249825, 
        "lat": 30.827775, 
        "type": "公司" 
    }, 
    { 
        "id": 657, 
        "name": "金蜀物流", 
        "lon": 104.119473, 
        "lat": 30.795735, 
        "type": "物流速递" 
    }, 
    { 
        "id": 658, 
        "name": "ESR成都易龙物流园", 
        "lon": 104.177829, 
        "lat": 30.528017, 
        "type": "物流速递" 
    }, 
    { 
        "id": 659, 
        "name": "成都禾腾物流有限公司", 
        "lon": 104.122279, 
        "lat": 30.793268, 
        "type": "物流速递" 
    }, 
    { 
        "id": 660, 
        "name": "四川乔邦物流有限公司", 
        "lon": 104.120376, 
        "lat": 30.802793, 
        "type": "物流速递" 
    }, 
    { 
        "id": 661, 
        "name": "中建三局羊安现代物流园项目1期", 
        "lon": 103.726138, 
        "lat": 30.366922, 
        "type": "物流速递" 
    }, 
    { 
        "id": 662, 
        "name": "时正物流", 
        "lon": 104.116504, 
        "lat": 30.795842, 
        "type": "物流速递" 
    }, 
    { 
        "id": 663, 
        "name": "普洛斯维龙龙泉驿物流园B-1", 
        "lon": 104.190459, 
        "lat": 30.533651, 
        "type": "物流速递" 
    }, 
    { 
        "id": 664, 
        "name": "力展物流", 
        "lon": 103.809443, 
        "lat": 30.429562, 
        "type": "物流速递" 
    }, 
    { 
        "id": 665, 
        "name": "江苏蚁梦(翔欣)供应链", 
        "lon": 104.116945, 
        "lat": 30.797533, 
        "type": "物流速递" 
    }, 
    { 
        "id": 666, 
        "name": "金鑫顺物流有限公司", 
        "lon": 104.051165, 
        "lat": 30.74982, 
        "type": "物流速递" 
    }, 
    { 
        "id": 667, 
        "name": "思川物流园", 
        "lon": 104.120355, 
        "lat": 30.794915, 
        "type": "物流速递" 
    }, 
    { 
        "id": 668, 
        "name": "余氏东风(龙和门店)", 
        "lon": 104.205124, 
        "lat": 30.731421, 
        "type": "物流速递" 
    }, 
    { 
        "id": 669, 
        "name": "广州鑫川粤物流有限公司", 
        "lon": 104.12614, 
        "lat": 30.800236, 
        "type": "物流速递" 
    }, 
    { 
        "id": 670, 
        "name": "盛恒物流有限公司", 
        "lon": 104.123504, 
        "lat": 30.801016, 
        "type": "物流速递" 
    }, 
    { 
        "id": 671, 
        "name": "安能物流(郫县犀浦营业部)", 
        "lon": 103.916904, 
        "lat": 30.790476, 
        "type": "生活服务场所" 
    }, 
    { 
        "id": 672, 
        "name": "四川嘉上嘉物流公司", 
        "lon": 104.121149, 
        "lat": 30.799972, 
        "type": "物流速递" 
    }, 
    { 
        "id": 673, 
        "name": "成都大禾航空货运", 
        "lon": 103.973949, 
        "lat": 30.553126, 
        "type": "物流速递" 
    }, 
    { 
        "id": 674, 
        "name": "力展物流(温江配送中心)", 
        "lon": 103.819581, 
        "lat": 30.69791, 
        "type": "物流速递" 
    }, 
    { 
        "id": 675, 
        "name": "成都鸿翔物流有限公司", 
        "lon": 104.239825, 
        "lat": 30.8505, 
        "type": "物流速递" 
    }, 
    { 
        "id": 676, 
        "name": "成都鸿翔物流有限公司", 
        "lon": 104.239825, 
        "lat": 30.8505, 
        "type": "物流速递" 
    }, 
    { 
        "id": 677, 
        "name": "郫都区安靖海霸王西部食品物流园区料香商贸有限公司", 
        "lon": 104.023825, 
        "lat": 30.749375, 
        "type": "公司" 
    }, 
    { 
        "id": 678, 
        "name": "佳吉物流园A区", 
        "lon": 104.135314, 
        "lat": 30.795539, 
        "type": "物流速递" 
    }, 
    { 
        "id": 679, 
        "name": "顺驰物流", 
        "lon": 104.180126, 
        "lat": 30.868306, 
        "type": "物流速递" 
    }, 
    { 
        "id": 680, 
        "name": "普洛斯成都青白江物流园", 
        "lon": 104.271025, 
        "lat": 30.824025, 
        "type": "物流速递" 
    }, 
    { 
        "id": 681, 
        "name": "成都美顺物流有限公司", 
        "lon": 104.126223, 
        "lat": 30.799869, 
        "type": "物流速递" 
    }, 
    { 
        "id": 682, 
        "name": "蓉越快线浙江全直达", 
        "lon": 104.238362, 
        "lat": 30.849358, 
        "type": "物流速递" 
    }, 
    { 
        "id": 683, 
        "name": "成都百宸物流有限公司", 
        "lon": 104.117767, 
        "lat": 30.797459, 
        "type": "物流速递" 
    }, 
    { 
        "id": 684, 
        "name": "盛飞物流", 
        "lon": 103.988114, 
        "lat": 30.555797, 
        "type": "物流速递" 
    }, 
    { 
        "id": 685, 
        "name": "成都仪蓬物流川西物流园", 
        "lon": 104.05528, 
        "lat": 30.748323, 
        "type": "物流速递" 
    }, 
    { 
        "id": 686, 
        "name": "成都导航物流有限公司", 
        "lon": 104.157328, 
        "lat": 30.79867, 
        "type": "物流速递" 
    }, 
    { 
        "id": 687, 
        "name": "德众物流", 
        "lon": 103.826679, 
        "lat": 30.567204, 
        "type": "物流速递" 
    }, 
    { 
        "id": 688, 
        "name": "德邦物流(成都简阳市天发物流园经营分部)", 
        "lon": 104.549102, 
        "lat": 30.362808, 
        "type": "物流速递" 
    }, 
    { 
        "id": 689, 
        "name": "余氏东风(美河仓储九江一店)", 
        "lon": 103.917297, 
        "lat": 30.635176, 
        "type": "物流速递" 
    }, 
    { 
        "id": 690, 
        "name": "安能物流(成都海霸王营业部)", 
        "lon": 104.025948, 
        "lat": 30.755086, 
        "type": "物流速递" 
    }, 
    { 
        "id": 691, 
        "name": "蓉便捷物流", 
        "lon": 104.018716, 
        "lat": 30.751105, 
        "type": "物流速递" 
    }, 
    { 
        "id": 692, 
        "name": "源天物流", 
        "lon": 103.917601, 
        "lat": 30.636679, 
        "type": "物流速递" 
    }, 
    { 
        "id": 693, 
        "name": "长吉物流(龙泉站)", 
        "lon": 104.24837, 
        "lat": 30.555028, 
        "type": "物流速递" 
    }, 
    { 
        "id": 694, 
        "name": "风神物流有限公司物流园", 
        "lon": 104.281591, 
        "lat": 30.681655, 
        "type": "物流速递" 
    }, 
    { 
        "id": 695, 
        "name": "川非鑫畅利发物流园A区", 
        "lon": 104.180275, 
        "lat": 30.868675, 
        "type": "物流速递" 
    }, 
    { 
        "id": 696, 
        "name": "中化石油奎洋加水区加油站", 
        "lon": 117.178552, 
        "lat": 24.83198, 
        "type": "加油站" 
    }, 
    { 
        "id": 697, 
        "name": "成都北车站", 
        "lon": 104.241984, 
        "lat": 30.775783, 
        "type": "货运火车站" 
    }, 
    { 
        "id": 698, 
        "name": "金堂站", 
        "lon": 104.432404, 
        "lat": 30.84169, 
        "type": "货运火车站" 
    },